[
  {
    "id": "1665",
    "page_id": "203796",
    "name": "\"Kraftl\u00f8ypa\"",
    "lat": 62.807616,
    "lon": 8.158507,
    "grade": "0",
    "t": 4,
    "county": "14",
    "length": "3,01",
    "length_text": "km rundtur",
    "hc": null,
    "type": "0",
    "url": "\/turar\/203796"
  },
  {
    "id": "1995",
    "page_id": "300188",
    "name": "4H Hytte Ellings\u00f8y",
    "lat": 62.50787033,
    "lon": 6.35942144,
    "grade": "0",
    "t": 1,
    "county": "33",
    "length": "3,94",
    "length_text": "km tur\/retur",
    "hc": null,
    "type": "0",
    "url": "\/turar\/300188"
  },
  {
    "id": "1075",
    "page_id": "204020",
    "name": "Aksla via Rundskue ",
    "lat": 62.4767,
    "lon": 6.18047,
    "grade": "1",
    "t": 4,
    "county": "33",
    "length": "4,74",
    "length_text": "km rundtur",
    "hc": null,
    "type": "0",
    "url": "\/turar\/204020"
  },
  {
    "id": "1921",
    "page_id": "300145",
    "name": "Ansokhornet",
    "lat": 62.32641473,
    "lon": 7.00872573,
    "grade": "2",
    "t": 1,
    "county": "23",
    "length": "8,29",
    "length_text": "km tur\/retur",
    "hc": null,
    "type": "0",
    "url": "\/turar\/300145"
  },
  {
    "id": "1058",
    "page_id": "203843",
    "name": "Apalviks\u00e6tra",
    "lat": 62.514149,
    "lon": 6.776075,
    "grade": "1",
    "t": 1,
    "county": "20",
    "hc": null,
    "type": "0",
    "url": "\/turar\/203843"
  },
  {
    "id": "1307",
    "page_id": "300102",
    "name": "Aukra kyststi",
    "lat": 62.847065,
    "lon": 6.794218,
    "grade": "0",
    "t": 4,
    "county": "0",
    "length": "2,4",
    "length_text": "km tur\/retur",
    "hc": null,
    "type": "0",
    "url": "\/turar\/300102"
  },
  {
    "id": "1414",
    "page_id": "300009",
    "name": "Aureelva",
    "lat": 63.265513,
    "lon": 8.527545,
    "grade": "0",
    "t": 4,
    "county": "1",
    "length": "0,6",
    "length_text": "km en vei",
    "hc": null,
    "type": "0",
    "url": "\/turar\/300009"
  },
  {
    "id": "1386",
    "page_id": "203949",
    "name": "Aursnesvatnet rundt",
    "lat": 62.251734,
    "lon": 5.819201,
    "grade": "0",
    "t": 2,
    "county": "29",
    "length": "2,8",
    "length_text": "km rundtur",
    "hc": null,
    "type": "0",
    "url": "\/turar\/203949"
  },
  {
    "id": "1931",
    "page_id": "300127",
    "name": "Bakkegjerdet fr\u00e5 Eidsdal skule",
    "lat": 62.2411794,
    "lon": 7.15158806,
    "grade": "0",
    "t": 3,
    "county": "15",
    "length": "3,58",
    "length_text": "km tur\/retur",
    "hc": null,
    "type": "0",
    "url": "\/turar\/300127"
  },
  {
    "id": "1710",
    "page_id": "203805",
    "name": "Bedringens veg i Valldal",
    "lat": 62.30564003,
    "lon": 7.25281924,
    "grade": "0",
    "t": 1,
    "county": "15",
    "length": "1,88",
    "length_text": "km tur\/retur",
    "hc": null,
    "type": "0",
    "url": "\/turar\/203805"
  },
  {
    "id": "1405",
    "page_id": "300010",
    "name": "Beitefeltet p\u00e5 Leira",
    "lat": 63.187099,
    "lon": 8.012883,
    "grade": "0",
    "t": 4,
    "county": "1",
    "length": "3",
    "length_text": "km tur\/retur",
    "hc": null,
    "type": "0",
    "url": "\/turar\/300010"
  },
  {
    "id": "1876",
    "page_id": "300000",
    "name": "Berghaugane",
    "lat": 62.781606,
    "lon": 6.903559,
    "grade": "0",
    "t": 3,
    "county": "0",
    "length": "2,4",
    "length_text": "km tur\/retur",
    "hc": null,
    "type": "0",
    "url": "\/turar\/300000"
  },
  {
    "id": "960",
    "page_id": "203722",
    "name": "Bettennesset, Betna i Halsa",
    "lat": 63.087257,
    "lon": 8.325368,
    "grade": "0",
    "t": 2,
    "county": "7",
    "length": "3,9",
    "length_text": "km rundtur",
    "hc": null,
    "type": "0",
    "url": "\/turar\/203722"
  },
  {
    "id": "675",
    "page_id": "203820",
    "name": "Bispevatnet",
    "lat": 62.454899,
    "lon": 7.647772,
    "grade": "0",
    "t": 4,
    "county": "16",
    "length": "2,8",
    "length_text": "km tur\/retur",
    "hc": null,
    "type": "0",
    "url": "\/turar\/203820"
  },
  {
    "id": "1072",
    "page_id": "203838",
    "name": "Bjergane, Har\u00f8ya",
    "lat": 62.753351,
    "lon": 6.472578,
    "grade": "0",
    "t": 4,
    "county": "19",
    "length": "6",
    "length_text": "km tur\/retur",
    "hc": null,
    "type": "0",
    "url": "\/turar\/203838"
  },
  {
    "id": "1098",
    "page_id": "203691",
    "name": "Bj\u00f8rnsund Fyr",
    "lat": 62.895433,
    "lon": 6.81574,
    "grade": "0",
    "t": 4,
    "county": "4",
    "length": "3,80",
    "length_text": "km tur\/retur",
    "hc": null,
    "type": "0",
    "url": "\/turar\/203691"
  },
  {
    "id": "1396",
    "page_id": "203924",
    "name": "Bj\u00f8r\u00e5skaret",
    "lat": 62.745625,
    "lon": 8.785601,
    "grade": "2",
    "t": 4,
    "county": "26",
    "length": "15,49",
    "length_text": "km tur\/retur",
    "hc": null,
    "type": "0",
    "url": "\/turar\/203924"
  },
  {
    "id": "1816",
    "page_id": "203791",
    "name": "Bl\u00e5fjellet",
    "lat": 62.7385,
    "lon": 8.20599,
    "grade": "2",
    "t": 4,
    "county": "14",
    "length": "10",
    "length_text": "km tur\/retur",
    "hc": null,
    "type": "0",
    "url": "\/turar\/203791"
  },
  {
    "id": "1009",
    "page_id": "203677",
    "name": "Bl\u00e5fjellet fra Brandsetra",
    "lat": 62.892705,
    "lon": 7.299814,
    "grade": "2",
    "t": 4,
    "county": "3",
    "length": "9",
    "length_text": "km tur\/retur",
    "hc": null,
    "type": "0",
    "url": "\/turar\/203677"
  },
  {
    "id": "68",
    "page_id": "203894",
    "name": "Bl\u00e5fjellet fra Langev\u00e5g stadion",
    "lat": 62.432782,
    "lon": 6.156979,
    "grade": "1",
    "t": 4,
    "county": "24",
    "length": "7,2",
    "length_text": "km tur\/retur",
    "hc": null,
    "type": "0",
    "url": "\/turar\/203894"
  },
  {
    "id": "781",
    "page_id": "203950",
    "name": "Bl\u00e5tind fr\u00e5 Eiksund",
    "lat": 62.274352,
    "lon": 5.910988,
    "grade": "2",
    "t": 4,
    "county": "29",
    "length": "6,00",
    "length_text": "km tur\/retur",
    "hc": null,
    "type": "0",
    "url": "\/turar\/203950"
  },
  {
    "id": "1113",
    "page_id": "203762",
    "name": "Bl\u00f8kallen fra Ramsvika",
    "lat": 62.66461,
    "lon": 6.629318,
    "grade": "2",
    "t": 4,
    "county": "12",
    "length": "2,8",
    "length_text": "km tur\/retur",
    "hc": null,
    "type": "0",
    "url": "\/turar\/203762"
  },
  {
    "id": "1761",
    "page_id": "203749",
    "name": "Bolgvatnet - Frei ",
    "lat": 63.066833,
    "lon": 7.776025,
    "grade": "0",
    "t": 4,
    "county": "11",
    "length": "6,2",
    "length_text": "km tur\/retur",
    "hc": null,
    "type": "0",
    "url": "\/turar\/203749"
  },
  {
    "id": "1223",
    "page_id": "203984",
    "name": "Bolleberget",
    "lat": 62.436449,
    "lon": 6.982645,
    "grade": "1",
    "t": 4,
    "county": "34",
    "length": "5,6",
    "length_text": "km tur\/retur",
    "hc": null,
    "type": "0",
    "url": "\/turar\/203984"
  },
  {
    "id": "1748",
    "page_id": "204010",
    "name": "Borgundgavlen",
    "lat": 62.466455,
    "lon": 6.225506,
    "grade": "0",
    "t": 4,
    "county": "33",
    "length": "2,9",
    "length_text": "km tur\/retur",
    "hc": null,
    "type": "0",
    "url": "\/turar\/204010"
  },
  {
    "id": "1048",
    "page_id": "203866",
    "name": "Botnast\u00f8len (Stavdalsst\u00f8len)",
    "lat": 62.396466,
    "lon": 7.1223,
    "grade": "1",
    "t": 1,
    "county": "22",
    "length": "7,4",
    "length_text": "km tur\/retur",
    "hc": null,
    "type": "0",
    "url": "\/turar\/203866"
  },
  {
    "id": "1459",
    "page_id": "203776",
    "name": "Brattlihaugen",
    "lat": 62.743525,
    "lon": 7.139397,
    "grade": "1",
    "t": 4,
    "county": "13",
    "length": "2",
    "length_text": "km tur\/retur",
    "hc": null,
    "type": "0",
    "url": "\/turar\/203776"
  },
  {
    "id": "1936",
    "page_id": "300154",
    "name": "Breifjellet fr\u00e5 Hovsetmarka",
    "lat": 62.35704945,
    "lon": 5.87345839,
    "grade": "0",
    "t": 2,
    "county": "29",
    "length": "4,82",
    "length_text": "km tur\/retur",
    "hc": null,
    "type": "0",
    "url": "\/turar\/300154"
  },
  {
    "id": "1786",
    "page_id": "203750",
    "name": "Breilia - Frei ",
    "lat": 63.073544,
    "lon": 7.810335,
    "grade": "1",
    "t": 4,
    "county": "11",
    "length": "4,6",
    "length_text": "km tur\/retur",
    "hc": null,
    "type": "0",
    "url": "\/turar\/203750"
  },
  {
    "id": "691",
    "page_id": "300101",
    "name": "Breiviksetra",
    "lat": 62.59498531,
    "lon": 7.74147213,
    "grade": "1",
    "t": 4,
    "county": "16",
    "length": "2,95",
    "length_text": "km tur\/retur",
    "hc": null,
    "type": "0",
    "url": "\/turar\/300101"
  },
  {
    "id": "815",
    "page_id": "204000",
    "name": "Brekkeheida fr\u00e5 Hellevegen",
    "lat": 62.19826631,
    "lon": 6.17045403,
    "grade": "0",
    "t": 4,
    "county": "35",
    "length": "2,6",
    "length_text": "km tur\/retur",
    "hc": null,
    "type": "0",
    "url": "\/turar\/204000"
  },
  {
    "id": "1771",
    "page_id": "300137",
    "name": "Bremsneshatten",
    "lat": 63.0802,
    "lon": 7.64564,
    "grade": "1",
    "t": 4,
    "county": "2",
    "length": "3,2",
    "length_text": "km tur\/retur",
    "hc": null,
    "type": "0",
    "url": "\/turar\/300137"
  },
  {
    "id": "1812",
    "page_id": "300051",
    "name": "Brenslen",
    "lat": 62.813421,
    "lon": 6.78704667,
    "grade": "0",
    "t": 3,
    "county": "0",
    "length": "1,4",
    "length_text": "km tur\/retur",
    "hc": null,
    "type": "0",
    "url": "\/turar\/300051"
  },
  {
    "id": "124",
    "page_id": "203703",
    "name": "Brimneset",
    "lat": 62.55186627,
    "lon": 6.00809639,
    "grade": "1",
    "t": 4,
    "county": "5",
    "length": "5,66",
    "length_text": "km rundtur",
    "hc": null,
    "type": "0",
    "url": "\/turar\/203703"
  },
  {
    "id": "1269",
    "page_id": "203882",
    "name": "Buvassbakken",
    "lat": 62.292596,
    "lon": 6.796525,
    "grade": "0",
    "t": 0,
    "county": "23",
    "length": "4,4",
    "length_text": "km tur\/retur",
    "hc": null,
    "type": "0",
    "url": "\/turar\/203882"
  },
  {
    "id": "1236",
    "page_id": "203925",
    "name": "B\u00f8lia",
    "lat": 62.995582,
    "lon": 8.379712,
    "grade": "2",
    "t": 4,
    "county": "26",
    "length": "7",
    "length_text": "km tur\/retur",
    "hc": null,
    "type": "0",
    "url": "\/turar\/203925"
  },
  {
    "id": "1407",
    "page_id": "203909",
    "name": "B\u00f8rsetkjerringa",
    "lat": 62.781188,
    "lon": 8.575087,
    "grade": "2",
    "t": 2,
    "county": "25",
    "length": "6,85",
    "length_text": "km rundtur",
    "hc": null,
    "type": "0",
    "url": "\/turar\/203909"
  },
  {
    "id": "1678",
    "page_id": "203855",
    "name": "Daudmannshaugen",
    "lat": 63.381679,
    "lon": 7.856297,
    "grade": "0",
    "t": 4,
    "county": "21",
    "length": "3",
    "length_text": "km tur\/retur",
    "hc": null,
    "type": "0",
    "url": "\/turar\/203855"
  },
  {
    "id": "775",
    "page_id": "203885",
    "name": "Den Trondjemske postvei- Herdalsbrekka-Lj\u00f8brekka",
    "lat": 62.135863,
    "lon": 6.908299,
    "grade": "1",
    "t": 4,
    "county": "23",
    "length": "7,84",
    "length_text": "km rundtur",
    "hc": null,
    "type": "0",
    "url": "\/turar\/203885"
  },
  {
    "id": "813",
    "page_id": "300176",
    "name": "Den julianske borg og Isfl\u00e5labyrinten",
    "lat": 62.29483329,
    "lon": 6.17189844,
    "grade": "2",
    "t": 4,
    "county": "35",
    "length": "5,26",
    "length_text": "km tur\/retur",
    "hc": null,
    "type": "0",
    "url": "\/turar\/300176"
  },
  {
    "id": "746",
    "page_id": "203763",
    "name": "Digergubben via Midsundtrappa",
    "lat": 62.68653354,
    "lon": 6.70259057,
    "grade": "1",
    "t": 4,
    "county": "12",
    "length": "4",
    "length_text": "km tur\/retur",
    "hc": null,
    "type": "0",
    "url": "\/turar\/203763"
  },
  {
    "id": "1787",
    "page_id": "203751",
    "name": "Drabovatnet",
    "lat": 63.083949,
    "lon": 7.840939,
    "grade": "0",
    "t": 4,
    "county": "11",
    "length": "2",
    "length_text": "km tur\/retur",
    "hc": null,
    "type": "0",
    "url": "\/turar\/203751"
  },
  {
    "id": "1268",
    "page_id": "203883",
    "name": "Dregetua",
    "lat": 62.276239,
    "lon": 6.912632,
    "grade": "1",
    "t": 2,
    "county": "23",
    "length": "8",
    "length_text": "km tur\/retur",
    "hc": null,
    "type": "0",
    "url": "\/turar\/203883"
  },
  {
    "id": "1385",
    "page_id": "203764",
    "name": "Drynjahatten",
    "lat": 62.647941,
    "lon": 6.541436,
    "grade": "1",
    "t": 4,
    "county": "12",
    "length": "3,2",
    "length_text": "km tur\/retur",
    "hc": null,
    "type": "0",
    "url": "\/turar\/203764"
  },
  {
    "id": "1326",
    "page_id": "203709",
    "name": "Du\u00e5 fr\u00e5 Heggem (Osmarka)",
    "lat": 62.882789,
    "lon": 7.789767,
    "grade": "2",
    "t": 4,
    "county": "6",
    "length": "14",
    "length_text": "km tur\/retur",
    "hc": null,
    "type": "0",
    "url": "\/turar\/203709"
  },
  {
    "id": "1047",
    "page_id": "203705",
    "name": "Dyb - rantane",
    "lat": 62.467122,
    "lon": 5.947756,
    "grade": "1",
    "t": 4,
    "county": "5",
    "length": "5,2",
    "length_text": "km tur\/retur",
    "hc": null,
    "type": "0",
    "url": "\/turar\/203705"
  },
  {
    "id": "1046",
    "page_id": "203867",
    "name": "Dyrdalstinden",
    "lat": 62.45337081,
    "lon": 7.25102484,
    "grade": "2",
    "t": 4,
    "county": "22",
    "length": "9,4",
    "length_text": "km tur\/retur",
    "hc": null,
    "type": "0",
    "url": "\/turar\/203867"
  },
  {
    "id": "1677",
    "page_id": "203856",
    "name": "Dyrnesvatnet",
    "lat": 63.411092,
    "lon": 7.878807,
    "grade": "0",
    "t": 4,
    "county": "21",
    "length": "6",
    "length_text": "km tur\/retur",
    "hc": null,
    "type": "0",
    "url": "\/turar\/203856"
  },
  {
    "id": "1440",
    "page_id": "203808",
    "name": "Eggjevatnet i Fj\u00f8r\u00e5",
    "lat": 62.317139,
    "lon": 7.345787,
    "grade": "1",
    "t": 4,
    "county": "15",
    "length": "8,2",
    "length_text": "km rundtur",
    "hc": null,
    "type": "0",
    "url": "\/turar\/203808"
  },
  {
    "id": "630",
    "page_id": "203821",
    "name": "Eiafossen via Gravhaugan",
    "lat": 62.4862,
    "lon": 7.75627,
    "grade": "1",
    "t": 4,
    "county": "16",
    "length": "6,5",
    "length_text": "km tur\/retur",
    "hc": null,
    "type": "0",
    "url": "\/turar\/203821"
  },
  {
    "id": "1712",
    "page_id": "300001",
    "name": "Eidskremheia fra Eidskrem",
    "lat": 62.753837,
    "lon": 7.019196,
    "grade": "1",
    "t": 2,
    "county": "0",
    "length": "5,4",
    "length_text": "km tur\/retur",
    "hc": null,
    "type": "0",
    "url": "\/turar\/300001"
  },
  {
    "id": "1325",
    "page_id": "203668",
    "name": "Einset",
    "lat": 63.01442413,
    "lon": 7.98376143,
    "grade": "0",
    "t": 0,
    "county": "28",
    "length": "2,30",
    "length_text": "km rundtur",
    "hc": null,
    "type": "0",
    "url": "\/turar\/203668"
  },
  {
    "id": "1408",
    "page_id": "203910",
    "name": "Ekkertind",
    "lat": 62.573083,
    "lon": 9.088495,
    "grade": "2",
    "t": 4,
    "county": "25",
    "length": "9,4",
    "length_text": "km tur\/retur",
    "hc": null,
    "type": "0",
    "url": "\/turar\/203910"
  },
  {
    "id": "1791",
    "page_id": "203693",
    "name": "Elnestangen Kyststi",
    "lat": 62.8417,
    "lon": 7.15542,
    "grade": "0",
    "t": 4,
    "county": "4",
    "length": "4,2",
    "length_text": "km tur\/retur",
    "hc": null,
    "type": "0",
    "url": "\/turar\/203693"
  },
  {
    "id": "885",
    "page_id": "203895",
    "name": "Eltrane - p\u00e5 fjellet",
    "lat": 62.43478,
    "lon": 6.07219,
    "grade": "2",
    "t": 2,
    "county": "24",
    "length": "17,2",
    "length_text": "km tur\/retur",
    "hc": null,
    "type": "0",
    "url": "\/turar\/203895"
  },
  {
    "id": "1433",
    "page_id": "203974",
    "name": "Elvadalen til \u00c5rneset",
    "lat": 62.14482,
    "lon": 6.097469,
    "grade": "0",
    "t": 4,
    "county": "32",
    "length": "1,6",
    "length_text": "km en vei",
    "hc": null,
    "type": "0",
    "url": "\/turar\/203974"
  },
  {
    "id": "872",
    "page_id": "203868",
    "name": "Elvaforbygninga",
    "lat": 62.380732,
    "lon": 7.031733,
    "grade": "0",
    "t": 4,
    "county": "22",
    "length": "4,5",
    "length_text": "km tur\/retur",
    "hc": null,
    "type": "0",
    "url": "\/turar\/203868"
  },
  {
    "id": "1087",
    "page_id": "300177",
    "name": "Elvar\u00e5sa",
    "lat": 62.36042448,
    "lon": 6.27375126,
    "grade": "0",
    "t": 2,
    "county": "35",
    "length": "3",
    "length_text": "km rundtur",
    "hc": null,
    "type": "0",
    "url": "\/turar\/300177"
  },
  {
    "id": "1850",
    "page_id": "300172",
    "name": "Elvastien",
    "lat": 62.47959,
    "lon": 6.821997,
    "grade": "0",
    "t": 4,
    "county": "34",
    "length": "1,3",
    "length_text": "km tur\/retur",
    "hc": null,
    "type": "0",
    "url": "\/turar\/300172"
  },
  {
    "id": "1809",
    "page_id": "300002",
    "name": "Emmershaugen \/ Riksfjordremma",
    "lat": 62.8151,
    "lon": 6.86861,
    "grade": "0",
    "t": 4,
    "county": "0",
    "length": "2,8",
    "length_text": "km tur\/retur",
    "hc": null,
    "type": "0",
    "url": "\/turar\/300002"
  },
  {
    "id": "1169",
    "page_id": "203728",
    "name": "Engdalen",
    "lat": 63.148617,
    "lon": 8.787021,
    "grade": "0",
    "t": 4,
    "county": "7",
    "length": "9,4",
    "length_text": "km tur\/retur",
    "hc": null,
    "type": "0",
    "url": "\/turar\/203728"
  },
  {
    "id": "1438",
    "page_id": "203844",
    "name": "Engsetfjellet",
    "lat": 62.536196,
    "lon": 6.771765,
    "grade": "1",
    "t": 1,
    "county": "20",
    "length": "6,5",
    "length_text": "km tur\/retur",
    "hc": null,
    "type": "0",
    "url": "\/turar\/203844"
  },
  {
    "id": "1316",
    "page_id": "203710",
    "name": "Fagerlih\u00f8gda fr\u00e5 Fagerlia",
    "lat": 62.900588,
    "lon": 7.970149,
    "grade": "1",
    "t": 1,
    "county": "6",
    "length": "4,4",
    "length_text": "km tur\/retur",
    "hc": null,
    "type": "0",
    "url": "\/turar\/203710"
  },
  {
    "id": "1965",
    "page_id": "300118",
    "name": "Fenrik Arnfinn Skj\u00f8stad\u00b4s minnest\u00f8tte",
    "lat": 63.21906064,
    "lon": 8.47670116,
    "grade": "1",
    "t": 4,
    "county": "1",
    "length": "8,02",
    "length_text": "km tur\/retur",
    "hc": null,
    "type": "0",
    "url": "\/turar\/300118"
  },
  {
    "id": "1272",
    "page_id": "203896",
    "name": "Fiskarstrandhyttene",
    "lat": 62.422835,
    "lon": 6.238561,
    "grade": "1",
    "t": 4,
    "county": "24",
    "length": "5,4",
    "length_text": "km tur\/retur",
    "hc": null,
    "type": "0",
    "url": "\/turar\/203896"
  },
  {
    "id": "1412",
    "page_id": "203911",
    "name": "Fjordparken",
    "lat": 62.684012,
    "lon": 8.554611,
    "grade": "0",
    "t": 4,
    "county": "25",
    "length": "2,4",
    "length_text": "km tur\/retur",
    "hc": null,
    "type": "0",
    "url": "\/turar\/203911"
  },
  {
    "id": "1085",
    "page_id": "203735",
    "name": "Fj\u00f8rtoftneset",
    "lat": 62.704487,
    "lon": 6.317884,
    "grade": "0",
    "t": 3,
    "county": "8",
    "length": "6",
    "length_text": "km tur\/retur",
    "hc": null,
    "type": "0",
    "url": "\/turar\/203735"
  },
  {
    "id": "1804",
    "page_id": "300122",
    "name": "Flemsetervatnet",
    "lat": 62.91731707,
    "lon": 7.99128041,
    "grade": "0",
    "t": 4,
    "county": "6",
    "length": "4,67",
    "length_text": "km rundtur",
    "hc": null,
    "type": "0",
    "url": "\/turar\/300122"
  },
  {
    "id": "1044",
    "page_id": "203752",
    "name": "Flyplassen rundt -  Byskogen, turvei langs flyplassen, Gl\u00f8sv\u00e5gen og Pilotveien",
    "lat": 63.118693,
    "lon": 7.850204,
    "grade": "0",
    "t": 4,
    "county": "11",
    "length": "9,2",
    "length_text": "km rundtur",
    "hc": null,
    "type": "0",
    "url": "\/turar\/203752"
  },
  {
    "id": "750",
    "page_id": "203655",
    "name": "Fl\u00e5nebba",
    "lat": 62.781855,
    "lon": 8.440997,
    "grade": "3",
    "t": 3,
    "county": "25",
    "length": "9,4",
    "length_text": "km tur\/retur",
    "hc": null,
    "type": "0",
    "url": "\/turar\/203655"
  },
  {
    "id": "901",
    "page_id": "203936",
    "name": "Fl\u00f8ystadfjellet 660 moh (Skarven)",
    "lat": 63.0127,
    "lon": 8.14302,
    "grade": "1",
    "t": 3,
    "county": "28",
    "length": "5,4",
    "length_text": "km tur\/retur",
    "hc": null,
    "type": "0",
    "url": "\/turar\/203936"
  },
  {
    "id": "1989",
    "page_id": "300170",
    "name": "Folkestadvatnet rundt ",
    "lat": 62.08518591,
    "lon": 6.00338459,
    "grade": "0",
    "t": 2,
    "county": "32",
    "length": "3,63",
    "length_text": "km rundtur",
    "hc": null,
    "type": "0",
    "url": "\/turar\/300170"
  },
  {
    "id": "1973",
    "page_id": "300138",
    "name": "Follandsvatne rundt",
    "lat": 62.98151592,
    "lon": 7.46758363,
    "grade": "0",
    "t": 3,
    "county": "2",
    "length": "3,49",
    "length_text": "km rundtur",
    "hc": null,
    "type": "0",
    "url": "\/turar\/300138"
  },
  {
    "id": "473",
    "page_id": "300106",
    "name": "For Fattig og Rik",
    "lat": 62.42063,
    "lon": 7.35115,
    "grade": "0",
    "t": 3,
    "county": "16",
    "length": "4,88",
    "length_text": "km tur\/retur",
    "hc": null,
    "type": "0",
    "url": "\/turar\/300106"
  },
  {
    "page_id": "300147",
    "name": "Framste Herdalsvatnet",
    "lat": 62.1487,
    "lon": 6.92042,
    "grade": "1",
    "morotur_node_id": "0",
    "link": "",
    "county": "23",
    "t": 0,
    "hc": 0,
    "opening_date": "",
    "type": "0",
    "url": "\/turar\/300147"
  },
  {
    "id": "1792",
    "page_id": "203753",
    "name": "Freikollen fra Prestmyra.",
    "lat": 63.0513,
    "lon": 7.7599,
    "grade": "2",
    "t": 4,
    "county": "11",
    "length": "3,2",
    "length_text": "km tur\/retur",
    "hc": null,
    "type": "0",
    "url": "\/turar\/203753"
  },
  {
    "id": "1389",
    "page_id": "203986",
    "name": "Fremste Skorkja \/ Litlebotntinden fr\u00e5 Hjellesetra",
    "lat": 62.424427,
    "lon": 7.080367,
    "grade": "2",
    "t": 4,
    "county": "34",
    "length": "13,4",
    "length_text": "km tur\/retur",
    "hc": null,
    "type": "0",
    "url": "\/turar\/203986"
  },
  {
    "id": "1946",
    "page_id": "300158",
    "name": "Frostaddalen",
    "lat": 62.57688588,
    "lon": 6.87280655,
    "grade": "1",
    "t": 3,
    "county": "31",
    "length": "5,04",
    "length_text": "km tur\/retur",
    "hc": null,
    "type": "0",
    "url": "\/turar\/300158"
  },
  {
    "id": "1933",
    "page_id": "300143",
    "name": "Frostadtinden",
    "lat": 62.55927855,
    "lon": 6.83035254,
    "grade": "1",
    "t": 1,
    "county": "20",
    "length": "9,69",
    "length_text": "km tur\/retur",
    "hc": null,
    "type": "0",
    "url": "\/turar\/300143"
  },
  {
    "id": "1949",
    "page_id": "300155",
    "name": "Fr\u00e5 Garnes til Garnesvatnet",
    "lat": 62.30120401,
    "lon": 5.86871624,
    "grade": "1",
    "t": 0,
    "county": "29",
    "length": "1,64",
    "length_text": "km tur\/retur",
    "hc": null,
    "type": "0",
    "url": "\/turar\/300155"
  },
  {
    "id": "1948",
    "page_id": "300112",
    "name": "Fr\u00e6navarden",
    "lat": 62.77206462,
    "lon": 7.15064071,
    "grade": "1",
    "t": 1,
    "county": "13",
    "length": "9,71",
    "length_text": "km tur\/retur",
    "hc": null,
    "type": "0",
    "url": "\/turar\/300112"
  },
  {
    "id": "1972",
    "page_id": "300164",
    "name": "Fyrdsheida",
    "lat": 62.07190023,
    "lon": 6.33488417,
    "grade": "2",
    "t": 4,
    "county": "32",
    "length": "5,18",
    "length_text": "km tur\/retur",
    "hc": null,
    "type": "0",
    "url": "\/turar\/300164"
  },
  {
    "id": "720",
    "page_id": "203694",
    "name": "Galten",
    "lat": 62.8118,
    "lon": 7.27218,
    "grade": "2",
    "t": 4,
    "county": "4",
    "length": "7,95",
    "length_text": "km tur\/retur",
    "hc": null,
    "type": "0",
    "url": "\/turar\/203694"
  },
  {
    "id": "2002",
    "page_id": "300165",
    "name": "Galten fr\u00e5 Mjeltebakkane",
    "lat": 62.12113076,
    "lon": 5.98484807,
    "grade": "1",
    "t": 4,
    "county": "32",
    "length": "4,11",
    "length_text": "km tur\/retur",
    "hc": null,
    "type": "0",
    "url": "\/turar\/300165"
  },
  {
    "id": "1851",
    "page_id": "300173",
    "name": "Gamle Lisetsetra",
    "lat": 62.477208,
    "lon": 6.900264,
    "grade": "1",
    "t": 4,
    "county": "34",
    "length": "5",
    "length_text": "km tur\/retur",
    "hc": null,
    "type": "0",
    "url": "\/turar\/300173"
  },
  {
    "id": "923",
    "page_id": "203809",
    "name": "Gamlevegen fr\u00e5 Alstad til Gr\u00f8nning i Valldal",
    "lat": 62.32908884,
    "lon": 7.48649597,
    "grade": "0",
    "t": 3,
    "county": "15",
    "length": "2,84",
    "length_text": "km tur\/retur",
    "hc": null,
    "type": "0",
    "url": "\/turar\/203809"
  },
  {
    "id": "294",
    "page_id": "300052",
    "name": "Gammelsetra",
    "lat": 62.768539,
    "lon": 6.999594,
    "grade": "1",
    "t": 3,
    "county": "0",
    "length": "2",
    "length_text": "km tur\/retur",
    "hc": null,
    "type": "0",
    "url": "\/turar\/300052"
  },
  {
    "id": "789",
    "page_id": "203951",
    "name": "Garnestua - Fl\u00e5na",
    "lat": 62.300157,
    "lon": 5.893564,
    "grade": "1",
    "t": 4,
    "county": "29",
    "length": "5,92",
    "length_text": "km tur\/retur",
    "hc": null,
    "type": "0",
    "url": "\/turar\/203951"
  },
  {
    "id": "1224",
    "page_id": "203987",
    "name": "Gausnestoppen",
    "lat": 62.463608,
    "lon": 6.780103,
    "grade": "1",
    "t": 3,
    "county": "34",
    "length": "7,4",
    "length_text": "km tur\/retur",
    "hc": null,
    "type": "0",
    "url": "\/turar\/203987"
  },
  {
    "id": "1814",
    "page_id": "203645",
    "name": "Gaustadv\u00e5gen naturreservat",
    "lat": 62.977848,
    "lon": 7.288198,
    "grade": "0",
    "t": 4,
    "county": "3",
    "length": "1,92",
    "length_text": "km tur\/retur",
    "hc": null,
    "type": "0",
    "url": "\/turar\/203645"
  },
  {
    "id": "1111",
    "page_id": "203937",
    "name": "Geilhaugen ved Tingvoll museum",
    "lat": 62.926867,
    "lon": 8.185995,
    "grade": "0",
    "t": 4,
    "county": "28",
    "length": "2",
    "length_text": "km tur\/retur",
    "hc": null,
    "type": "0",
    "url": "\/turar\/203937"
  },
  {
    "id": "888",
    "page_id": "203988",
    "name": "Geitanibba",
    "lat": 62.48657387,
    "lon": 6.97949409,
    "grade": "1",
    "t": 4,
    "county": "34",
    "length": "5,6",
    "length_text": "km tur\/retur",
    "hc": null,
    "type": "0",
    "url": "\/turar\/203988"
  },
  {
    "id": "1997",
    "page_id": "300189",
    "name": "Geitnausa fra Spjelkavik",
    "lat": 62.46348952,
    "lon": 6.44450111,
    "grade": "1",
    "t": 1,
    "county": "33",
    "length": "7,18",
    "length_text": "km tur\/retur",
    "hc": null,
    "type": "0",
    "url": "\/turar\/300189"
  },
  {
    "id": "162",
    "page_id": "203975",
    "name": "Gildrehammaren",
    "lat": 62.157736,
    "lon": 6.071996,
    "grade": "1",
    "t": 4,
    "county": "32",
    "length": "1,4",
    "length_text": "km tur\/retur",
    "hc": null,
    "type": "0",
    "url": "\/turar\/203975"
  },
  {
    "id": "983",
    "page_id": "203723",
    "name": "Gjengst\u00f8knoken 398 moh.",
    "lat": 63.098463,
    "lon": 8.382745,
    "grade": "1",
    "t": 4,
    "county": "7",
    "length": "4,2",
    "length_text": "km tur\/retur",
    "hc": null,
    "type": "0",
    "url": "\/turar\/203723"
  },
  {
    "id": "60",
    "page_id": "203898",
    "name": "Gj\u00f8levannet fra Fiskarstranda",
    "lat": 62.428565,
    "lon": 6.251314,
    "grade": "0",
    "t": 4,
    "county": "24",
    "length": "2,7",
    "length_text": "km tur\/retur",
    "hc": null,
    "type": "0",
    "url": "\/turar\/203898"
  },
  {
    "id": "834",
    "page_id": "203848",
    "name": "Glomset-Nerst\u00f8len-Fjordamannsvegen-Glomset (Rundtur)",
    "lat": 62.470203,
    "lon": 6.577179,
    "grade": "1",
    "t": 3,
    "county": "20",
    "length": "5",
    "length_text": "km rundtur",
    "hc": null,
    "type": "0",
    "url": "\/turar\/203848"
  },
  {
    "id": "163",
    "page_id": "203869",
    "name": "Grig\u00e5s natursti",
    "lat": 62.389892,
    "lon": 7.010415,
    "grade": "0",
    "t": 4,
    "county": "22",
    "length": "2,4",
    "length_text": "km tur\/retur",
    "hc": null,
    "type": "0",
    "url": "\/turar\/203869"
  },
  {
    "id": "1393",
    "page_id": "300011",
    "name": "Grimsvikvatnet rundt",
    "lat": 63.261019,
    "lon": 8.369546,
    "grade": "0",
    "t": 0,
    "county": "1",
    "length": "2,83",
    "length_text": "km rundtur",
    "hc": null,
    "type": "0",
    "url": "\/turar\/300011"
  },
  {
    "id": "1235",
    "page_id": "203989",
    "name": "Grytavatnet",
    "lat": 62.440616,
    "lon": 7.085828,
    "grade": "1",
    "t": 4,
    "county": "34",
    "length": "7,4",
    "length_text": "km tur\/retur",
    "hc": null,
    "type": "0",
    "url": "\/turar\/203989"
  },
  {
    "id": "1423",
    "page_id": "203857",
    "name": "Gr\u00f8nvika",
    "lat": 63.328445,
    "lon": 8.095379,
    "grade": "0",
    "t": 3,
    "county": "21",
    "length": "2",
    "length_text": "km tur\/retur",
    "hc": null,
    "type": "0",
    "url": "\/turar\/203857"
  },
  {
    "id": "1439",
    "page_id": "203899",
    "name": "Gr\u00f8thornet",
    "lat": 62.424935,
    "lon": 6.139275,
    "grade": "1",
    "t": 1,
    "county": "24",
    "length": "6",
    "length_text": "km tur\/retur",
    "hc": null,
    "type": "0",
    "url": "\/turar\/203899"
  },
  {
    "id": "1486",
    "page_id": "203794",
    "name": "Gr\u00f8velfjellet",
    "lat": 62.681214,
    "lon": 7.860866,
    "grade": "1",
    "t": 4,
    "county": "14",
    "hc": null,
    "type": "0",
    "url": "\/turar\/203794"
  },
  {
    "id": "258",
    "page_id": "203650",
    "name": "Gulberget i Bud - rundtur",
    "lat": 62.908513,
    "lon": 6.946868,
    "grade": "1",
    "t": 4,
    "county": "4",
    "length": "5,19",
    "length_text": "km rundtur",
    "hc": null,
    "type": "0",
    "url": "\/turar\/203650"
  },
  {
    "id": "1751",
    "page_id": "300012",
    "name": "Gullsteinvollen",
    "lat": 63.190975,
    "lon": 8.106891,
    "grade": "1",
    "t": 3,
    "county": "1",
    "length": "8",
    "length_text": "km tur\/retur",
    "hc": null,
    "type": "0",
    "url": "\/turar\/300012"
  },
  {
    "id": "1778",
    "page_id": "300139",
    "name": "Gulltanna ",
    "lat": 62.9795,
    "lon": 7.50435,
    "grade": "1",
    "t": 4,
    "county": "2",
    "length": "4,11",
    "length_text": "km tur\/retur",
    "hc": null,
    "type": "0",
    "url": "\/turar\/300139"
  },
  {
    "id": "1956",
    "page_id": "203660",
    "name": "G\u00e5svatnet rundt",
    "lat": 63.42018577,
    "lon": 8.05629373,
    "grade": "0",
    "t": 4,
    "county": "21",
    "length": "1,06",
    "length_text": "km rundtur",
    "hc": null,
    "type": "0",
    "url": "\/turar\/203660"
  },
  {
    "id": "1430",
    "page_id": "203952",
    "name": "G\u00f3tene, Fl\u00f8 (Hokksteinen)",
    "lat": 62.4181,
    "lon": 5.894256,
    "grade": "0",
    "t": 3,
    "county": "29",
    "length": "3",
    "length_text": "km rundtur",
    "hc": null,
    "type": "0",
    "url": "\/turar\/203952"
  },
  {
    "id": "1825",
    "page_id": "300140",
    "name": "Hagahornet fra Steinsgrenda",
    "lat": 62.96626043,
    "lon": 7.48456277,
    "grade": "1",
    "t": 1,
    "county": "2",
    "length": "6",
    "length_text": "km tur\/retur",
    "hc": null,
    "type": "0",
    "url": "\/turar\/300140"
  },
  {
    "id": "1472",
    "page_id": "203795",
    "name": "Hagb\u00f8setra",
    "lat": 62.733701,
    "lon": 8.133787,
    "grade": "1",
    "t": 4,
    "county": "14",
    "length": "5,2",
    "length_text": "km tur\/retur",
    "hc": null,
    "type": "0",
    "url": "\/turar\/203795"
  },
  {
    "id": "1456",
    "page_id": "203736",
    "name": "Halsane \/ St\u00f8ene",
    "lat": 62.685138,
    "lon": 6.270679,
    "grade": "0",
    "t": 4,
    "county": "8",
    "hc": null,
    "type": "0",
    "url": "\/turar\/203736"
  },
  {
    "id": "1843",
    "page_id": "203680",
    "name": "Hal\u00e5ssetra",
    "lat": 62.87577,
    "lon": 7.387128,
    "grade": "0",
    "t": 4,
    "county": "3",
    "length": "5,3",
    "length_text": "km tur\/retur",
    "hc": null,
    "type": "0",
    "url": "\/turar\/203680"
  },
  {
    "id": "1131",
    "page_id": "300166",
    "name": "Haralddalss\u00e6tra",
    "lat": 62.036846,
    "lon": 6.343917,
    "grade": "1",
    "t": 4,
    "county": "32",
    "length": "4,8",
    "length_text": "km rundtur",
    "hc": null,
    "type": "0",
    "url": "\/turar\/300166"
  },
  {
    "id": "765",
    "page_id": "203839",
    "name": "Har\u00f8yburet ",
    "lat": 62.739,
    "lon": 6.44929,
    "grade": "1",
    "t": 3,
    "county": "19",
    "length": "1,5",
    "length_text": "km tur\/retur",
    "hc": null,
    "type": "0",
    "url": "\/turar\/203839"
  },
  {
    "id": "1924",
    "page_id": "203663",
    "name": "Haugasetra",
    "lat": 62.92132773,
    "lon": 8.62983702,
    "grade": "1",
    "t": 4,
    "county": "26",
    "length": "3,07",
    "length_text": "km tur\/retur",
    "hc": null,
    "type": "0",
    "url": "\/turar\/203663"
  },
  {
    "id": "1227",
    "page_id": "203845",
    "name": "Haugtua fra Glomset",
    "lat": 62.477572,
    "lon": 6.618361,
    "grade": "1",
    "t": 4,
    "county": "20",
    "length": "6",
    "length_text": "km tur\/retur",
    "hc": null,
    "type": "0",
    "url": "\/turar\/203845"
  },
  {
    "id": "1281",
    "page_id": "203778",
    "name": "Haukarheia",
    "lat": 62.768502,
    "lon": 7.229953,
    "grade": "1",
    "t": 3,
    "county": "13",
    "length": "7",
    "length_text": "km tur\/retur",
    "hc": null,
    "type": "0",
    "url": "\/turar\/203778"
  },
  {
    "id": "1302",
    "page_id": "203779",
    "name": "Hausen",
    "lat": 62.76962501,
    "lon": 7.30898939,
    "grade": "1",
    "t": 3,
    "county": "13",
    "length": "6,6",
    "length_text": "km tur\/retur",
    "hc": null,
    "type": "0",
    "url": "\/turar\/203779"
  },
  {
    "id": "1282",
    "page_id": "203765",
    "name": "Heggdalshornet",
    "lat": 62.702438,
    "lon": 6.874714,
    "grade": "2",
    "t": 4,
    "county": "12",
    "length": "12",
    "length_text": "km tur\/retur",
    "hc": null,
    "type": "0",
    "url": "\/turar\/203765"
  },
  {
    "id": "770",
    "page_id": "203766",
    "name": "Heggdalsvatnet",
    "lat": 62.713345,
    "lon": 6.864133,
    "grade": "0",
    "t": 3,
    "county": "12",
    "length": "6,4",
    "length_text": "km tur\/retur",
    "hc": null,
    "type": "0",
    "url": "\/turar\/203766"
  },
  {
    "id": "1175",
    "page_id": "203976",
    "name": "Helgehornet - langs vestryggen",
    "lat": 62.189698,
    "lon": 6.001797,
    "grade": "1",
    "t": 4,
    "county": "32",
    "length": "4,8",
    "length_text": "km tur\/retur",
    "hc": null,
    "type": "0",
    "url": "\/turar\/203976"
  },
  {
    "id": "1465",
    "page_id": "203737",
    "name": "Hellenakken",
    "lat": 62.614518,
    "lon": 6.639717,
    "grade": "1",
    "t": 3,
    "county": "8",
    "length": "5,2",
    "length_text": "km tur\/retur",
    "hc": null,
    "type": "0",
    "url": "\/turar\/203737"
  },
  {
    "id": "837",
    "page_id": "203960",
    "name": "Helsetnakken via Vikesetra og St\u00f8lan (Krogsetst\u00f8len og Helsetst\u00f8len)",
    "lat": 62.587498,
    "lon": 7.167748,
    "grade": "1",
    "t": 4,
    "county": "31",
    "length": "5,8",
    "length_text": "km tur\/retur",
    "hc": null,
    "type": "0",
    "url": "\/turar\/203960"
  },
  {
    "id": "1923",
    "page_id": "300167",
    "name": "Heltnelihuken",
    "lat": 62.15621472,
    "lon": 6.1167267,
    "grade": "0",
    "t": 4,
    "county": "32",
    "length": "1,83",
    "length_text": "km tur\/retur",
    "hc": null,
    "type": "0",
    "url": "\/turar\/300167"
  },
  {
    "id": "851",
    "page_id": "203724",
    "name": "Hennafjellet",
    "lat": 63.122913,
    "lon": 8.436558,
    "grade": "1",
    "t": 4,
    "county": "7",
    "length": "5,6",
    "length_text": "km tur\/retur",
    "hc": null,
    "type": "0",
    "url": "\/turar\/203724"
  },
  {
    "id": "684",
    "page_id": "203823",
    "name": "Herjevatnet",
    "lat": 62.651203,
    "lon": 7.577133,
    "grade": "0",
    "t": 4,
    "county": "16",
    "length": "2,12",
    "length_text": "km en vei",
    "hc": null,
    "type": "0",
    "url": "\/turar\/203823"
  },
  {
    "id": "1410",
    "page_id": "203938",
    "name": "Herresdalsetra",
    "lat": 62.995433,
    "lon": 8.118156,
    "grade": "1",
    "t": 4,
    "county": "28",
    "length": "4,8",
    "length_text": "km tur\/retur",
    "hc": null,
    "type": "0",
    "url": "\/turar\/203938"
  },
  {
    "id": "1451",
    "page_id": "203738",
    "name": "Hestevatnet",
    "lat": 62.593183,
    "lon": 6.409407,
    "grade": "0",
    "t": 1,
    "county": "8",
    "length": "3",
    "length_text": "km tur\/retur",
    "hc": null,
    "type": "0",
    "url": "\/turar\/203738"
  },
  {
    "id": "1764",
    "page_id": "203990",
    "name": "Hestvika",
    "lat": 62.46978,
    "lon": 6.79504,
    "grade": "0",
    "t": 3,
    "county": "34",
    "length": "3",
    "length_text": "km tur\/retur",
    "hc": null,
    "type": "0",
    "url": "\/turar\/203990"
  },
  {
    "id": "981",
    "page_id": "300120",
    "name": "Hjelmkona (846 moh.) fra Englivatnet",
    "lat": 63.058318,
    "lon": 8.548989,
    "grade": "2",
    "t": 4,
    "county": "7",
    "length": "13,2",
    "length_text": "km tur\/retur",
    "hc": null,
    "type": "0",
    "url": "\/turar\/300120"
  },
  {
    "id": "1693",
    "page_id": "203780",
    "name": "Hjert\u00f8ytangen over \u00f8ya.",
    "lat": 62.712565,
    "lon": 7.116783,
    "grade": "1",
    "t": 4,
    "county": "13",
    "length": "8",
    "length_text": "km tur\/retur",
    "hc": null,
    "type": "0",
    "url": "\/turar\/203780"
  },
  {
    "id": "1721",
    "page_id": "204011",
    "name": "Holsfjellet",
    "lat": 62.478761,
    "lon": 6.397887,
    "grade": "1",
    "t": 4,
    "county": "33",
    "length": "4,5",
    "length_text": "km tur\/retur",
    "hc": null,
    "type": "0",
    "url": "\/turar\/204011"
  },
  {
    "id": "1301",
    "page_id": "203711",
    "name": "Holtafjellet (610 moh)",
    "lat": 62.925941,
    "lon": 7.819724,
    "grade": "1",
    "t": 4,
    "county": "6",
    "length": "7,1",
    "length_text": "km tur\/retur",
    "hc": null,
    "type": "0",
    "url": "\/turar\/203711"
  },
  {
    "id": "1449",
    "page_id": "300134",
    "name": "Honnings\u00f8ya rundt og opp",
    "lat": 63.073049,
    "lon": 7.490959,
    "grade": "0",
    "t": 4,
    "county": "2",
    "length": "1,9",
    "length_text": "km tur\/retur",
    "hc": null,
    "type": "0",
    "url": "\/turar\/300134"
  },
  {
    "id": "1951",
    "page_id": "300191",
    "name": "Hosetlia fra Roksetskaret",
    "lat": 62.97869804,
    "lon": 7.6254005,
    "grade": "0",
    "t": 4,
    "county": "2",
    "length": "2,4",
    "length_text": "km rundtur",
    "hc": null,
    "type": "0",
    "url": "\/turar\/300191"
  },
  {
    "id": "1392",
    "page_id": "300013",
    "name": "Hostegga",
    "lat": 63.240391,
    "lon": 8.451302,
    "grade": "1",
    "t": 2,
    "county": "1",
    "length": "6,6",
    "length_text": "km tur\/retur",
    "hc": null,
    "type": "0",
    "url": "\/turar\/300013"
  },
  {
    "id": "164",
    "page_id": "203870",
    "name": "Hovsnakken",
    "lat": 62.392239,
    "lon": 6.981532,
    "grade": "1",
    "t": 3,
    "county": "22",
    "length": "2,8",
    "length_text": "km tur\/retur",
    "hc": null,
    "type": "0",
    "url": "\/turar\/203870"
  },
  {
    "id": "1338",
    "page_id": "203939",
    "name": "Hufatet",
    "lat": 62.798999,
    "lon": 8.357063,
    "grade": "2",
    "t": 1,
    "county": "28",
    "length": "7,6",
    "length_text": "km tur\/retur",
    "hc": null,
    "type": "0",
    "url": "\/turar\/203939"
  },
  {
    "id": "1944",
    "page_id": "203670",
    "name": "Hundan",
    "lat": 63.05870009,
    "lon": 8.09363276,
    "grade": "1",
    "t": 0,
    "county": "28",
    "length": "7,52",
    "length_text": "km tur\/retur",
    "hc": null,
    "type": "0",
    "url": "\/turar\/203670"
  },
  {
    "id": "1624",
    "page_id": "300003",
    "name": "Hundetj\u00f8nna",
    "lat": 62.780753,
    "lon": 7.018361,
    "grade": "0",
    "t": 3,
    "county": "0",
    "length": "3",
    "length_text": "km tur\/retur",
    "hc": null,
    "type": "0",
    "url": "\/turar\/300003"
  },
  {
    "id": "1992",
    "page_id": "300113",
    "name": "Husbysetra",
    "lat": 62.67010314,
    "lon": 8.08205458,
    "grade": "0",
    "t": 4,
    "county": "14",
    "length": "1,80",
    "length_text": "km tur\/retur",
    "hc": null,
    "type": "0",
    "url": "\/turar\/300113"
  },
  {
    "id": "585",
    "page_id": "300103",
    "name": "Husnebbu",
    "lat": 62.5944,
    "lon": 7.94492,
    "grade": "1",
    "t": 4,
    "county": "16",
    "length": "7,74",
    "length_text": "km tur\/retur",
    "hc": null,
    "type": "0",
    "url": "\/turar\/300103"
  },
  {
    "id": "1296",
    "page_id": "203682",
    "name": "H\u00e5g\u00e5 rundt, Ormen p\u00e5 Atlanterhavsvegen",
    "lat": 63.009973,
    "lon": 7.30056,
    "grade": "0",
    "t": 4,
    "county": "3",
    "length": "1,3",
    "length_text": "km rundtur",
    "hc": null,
    "type": "0",
    "url": "\/turar\/203682"
  },
  {
    "id": "1303",
    "page_id": "203912",
    "name": "H\u00e5s\u00f8ran, Sunndals\u00f8ra",
    "lat": 62.669725,
    "lon": 8.531567,
    "grade": "0",
    "t": 2,
    "county": "25",
    "length": "4",
    "length_text": "km tur\/retur",
    "hc": null,
    "type": "0",
    "url": "\/turar\/203912"
  },
  {
    "id": "1821",
    "page_id": "203681",
    "name": "H\u00e6ldalsvatnet",
    "lat": 62.902209,
    "lon": 7.316241,
    "grade": "1",
    "t": 4,
    "county": "3",
    "length": "2,6",
    "length_text": "km tur\/retur",
    "hc": null,
    "type": "0",
    "url": "\/turar\/203681"
  },
  {
    "id": "741",
    "page_id": "203646",
    "name": "H\u00e6len, Sandneset",
    "lat": 62.91156179,
    "lon": 7.32176006,
    "grade": "1",
    "t": 4,
    "county": "3",
    "length": "4,45",
    "length_text": "km tur\/retur",
    "hc": null,
    "type": "0",
    "url": "\/turar\/203646"
  },
  {
    "id": "1424",
    "page_id": "203953",
    "name": "H\u00f8gda p\u00e5 Eika",
    "lat": 62.245229,
    "lon": 5.896534,
    "grade": "0",
    "t": 1,
    "county": "29",
    "length": "2,96",
    "length_text": "km tur\/retur",
    "hc": null,
    "type": "0",
    "url": "\/turar\/203953"
  },
  {
    "id": "1906",
    "page_id": "300178",
    "name": "H\u00f8geheida i \u00d8rsta",
    "lat": 62.24107682,
    "lon": 6.22790909,
    "grade": "1",
    "t": 3,
    "county": "35",
    "length": "6,22",
    "length_text": "km tur\/retur",
    "hc": null,
    "type": "0",
    "url": "\/turar\/300178"
  },
  {
    "id": "1755",
    "page_id": "203940",
    "name": "H\u00f8gfjellet",
    "lat": 62.9778,
    "lon": 8.09676,
    "grade": "2",
    "t": 4,
    "county": "28",
    "length": "4,4",
    "length_text": "km tur\/retur",
    "hc": null,
    "type": "0",
    "url": "\/turar\/203940"
  },
  {
    "id": "932",
    "page_id": "203726",
    "name": "H\u00f8gheia",
    "lat": 63.131245,
    "lon": 8.289356,
    "grade": "1",
    "t": 4,
    "county": "7",
    "length": "5,91",
    "length_text": "km rundtur",
    "hc": null,
    "type": "0",
    "url": "\/turar\/203726"
  },
  {
    "id": "234",
    "page_id": "204013",
    "name": "H\u00f8gkubben (450 moh.) fra Skarpetegane",
    "lat": 62.448111,
    "lon": 6.411381,
    "grade": "1",
    "t": 4,
    "county": "33",
    "length": "5,1",
    "length_text": "km tur\/retur",
    "hc": null,
    "type": "0",
    "url": "\/turar\/204013"
  },
  {
    "id": "1446",
    "page_id": "300168",
    "name": "H\u00f8g\u00e5sen - Hjart\u00e5",
    "lat": 62.097624,
    "lon": 6.152472,
    "grade": "1",
    "t": 4,
    "county": "32",
    "length": "2,7",
    "length_text": "km rundtur",
    "hc": null,
    "type": "0",
    "url": "\/turar\/300168"
  },
  {
    "id": "1927",
    "page_id": "203954",
    "name": "H\u00f8g\u00e5sen fr\u00e5 Kleven",
    "lat": 62.321644,
    "lon": 5.826194,
    "grade": "0",
    "t": 4,
    "county": "29",
    "length": "2,64",
    "length_text": "km tur\/retur",
    "hc": null,
    "type": "0",
    "url": "\/turar\/203954"
  },
  {
    "id": "1402",
    "page_id": "203712",
    "name": "Ikornneset",
    "lat": 62.971491,
    "lon": 7.739073,
    "grade": "0",
    "t": 4,
    "county": "6",
    "length": "1,3",
    "length_text": "km tur\/retur",
    "hc": null,
    "type": "0",
    "url": "\/turar\/203712"
  },
  {
    "id": "1441",
    "page_id": "203810",
    "name": "Illstigvatnet i Storkaldhusdalen",
    "lat": 62.14106322,
    "lon": 7.40166575,
    "grade": "1",
    "t": 4,
    "county": "15",
    "length": "5,8",
    "length_text": "km tur\/retur",
    "hc": null,
    "type": "0",
    "url": "\/turar\/203810"
  },
  {
    "id": "1403",
    "page_id": "300014",
    "name": "Inderbergsalen",
    "lat": 63.171807,
    "lon": 8.21987,
    "grade": "2",
    "t": 3,
    "county": "1",
    "length": "10,1",
    "length_text": "km tur\/retur",
    "hc": null,
    "type": "0",
    "url": "\/turar\/300014"
  },
  {
    "id": "225",
    "page_id": "203656",
    "name": "Innerdalshytta",
    "lat": 62.72178824,
    "lon": 8.77504796,
    "grade": "0",
    "t": 4,
    "county": "25",
    "length": "7,98",
    "length_text": "km tur\/retur",
    "hc": null,
    "type": "0",
    "url": "\/turar\/203656"
  },
  {
    "id": "1400",
    "page_id": "203859",
    "name": "Innveien p\u00e5 Veiholmen",
    "lat": 63.511366,
    "lon": 7.952535,
    "grade": "0",
    "t": 4,
    "county": "21",
    "length": "2",
    "length_text": "km rundtur",
    "hc": null,
    "type": "0",
    "url": "\/turar\/203859"
  },
  {
    "id": "1041",
    "page_id": "203992",
    "name": "Jarskar, rundtur Skarb\u00f8 - Vestre",
    "lat": 62.465614,
    "lon": 6.873083,
    "grade": "1",
    "t": 4,
    "county": "34",
    "length": "6,3",
    "length_text": "km rundtur",
    "hc": null,
    "type": "0",
    "url": "\/turar\/203992"
  },
  {
    "id": "1966",
    "page_id": "300159",
    "name": "Jensbu - Storskorkja fr\u00e5 \u00d8vstedal",
    "lat": 62.47018786,
    "lon": 7.16845618,
    "grade": "2",
    "t": 2,
    "county": "31",
    "length": "7,55",
    "length_text": "km tur\/retur",
    "hc": null,
    "type": "0",
    "url": "\/turar\/300159"
  },
  {
    "id": "1962",
    "page_id": "203657",
    "name": "Jokkerdalen",
    "lat": 62.61825486,
    "lon": 8.72514009,
    "grade": "1",
    "t": 2,
    "county": "25",
    "length": "6,00",
    "length_text": "km tur\/retur",
    "hc": null,
    "type": "0",
    "url": "\/turar\/203657"
  },
  {
    "id": "206",
    "page_id": "203781",
    "name": "Julneset fra Mordalsv\u00e5gen",
    "lat": 62.725,
    "lon": 6.98558,
    "grade": "0",
    "t": 4,
    "county": "13",
    "length": "1,5",
    "length_text": "km tur\/retur",
    "hc": null,
    "type": "0",
    "url": "\/turar\/203781"
  },
  {
    "id": "1909",
    "page_id": "300169",
    "name": "Kalsethola",
    "lat": 62.1390007,
    "lon": 6.09247785,
    "grade": "0",
    "t": 4,
    "county": "32",
    "length": "2,59",
    "length_text": "km rundtur",
    "hc": null,
    "type": "0",
    "url": "\/turar\/300169"
  },
  {
    "id": "1002",
    "page_id": "204003",
    "name": "Kalvedalen",
    "lat": 62.224192,
    "lon": 6.343693,
    "grade": "1",
    "t": 4,
    "county": "35",
    "length": "3,13",
    "length_text": "km tur\/retur",
    "hc": null,
    "type": "0",
    "url": "\/turar\/204003"
  },
  {
    "id": "1351",
    "page_id": "300179",
    "name": "Kamben p\u00e5 Bj\u00f8rke",
    "lat": 62.10625763,
    "lon": 6.56452551,
    "grade": "0",
    "t": 4,
    "county": "35",
    "length": "5,3",
    "length_text": "km tur\/retur",
    "hc": null,
    "type": "0",
    "url": "\/turar\/300179"
  },
  {
    "id": "1610",
    "page_id": "203860",
    "name": "Kasthaugan",
    "lat": 63.457435,
    "lon": 8.022031,
    "grade": "0",
    "t": 4,
    "county": "21",
    "length": "0,83",
    "length_text": "km tur\/retur",
    "hc": null,
    "type": "0",
    "url": "\/turar\/203860"
  },
  {
    "id": "264",
    "page_id": "203978",
    "name": "Keipen",
    "lat": 62.032237,
    "lon": 6.069174,
    "grade": "2",
    "t": 4,
    "county": "32",
    "length": "6,55",
    "length_text": "km tur\/retur",
    "hc": null,
    "type": "0",
    "url": "\/turar\/203978"
  },
  {
    "id": "1891",
    "page_id": "300128",
    "name": "Kilstiheia",
    "lat": 62.26628504,
    "lon": 7.08951115,
    "grade": "1",
    "t": 4,
    "county": "15",
    "length": "8",
    "length_text": "km tur\/retur",
    "hc": null,
    "type": "0",
    "url": "\/turar\/300128"
  },
  {
    "id": "1939",
    "page_id": "300149",
    "name": "Kjellingset",
    "lat": 62.43778282,
    "lon": 6.14254081,
    "grade": "0",
    "t": 0,
    "county": "24",
    "length": "2,43",
    "length_text": "km tur\/retur",
    "hc": null,
    "type": "0",
    "url": "\/turar\/300149"
  },
  {
    "id": "1929",
    "page_id": "300129",
    "name": "Kjellsura i Dale",
    "lat": 62.2466927,
    "lon": 7.2536798,
    "grade": "0",
    "t": 4,
    "county": "15",
    "length": "2,60",
    "length_text": "km tur\/retur",
    "hc": null,
    "type": "0",
    "url": "\/turar\/300129"
  },
  {
    "id": "190",
    "page_id": "203667",
    "name": "Kjerkjeberget 611 moh",
    "lat": 62.9005,
    "lon": 8.25031,
    "grade": "1",
    "t": 4,
    "county": "28",
    "length": "6,8",
    "length_text": "km tur\/retur",
    "hc": null,
    "type": "0",
    "url": "\/turar\/203667"
  },
  {
    "id": "643",
    "page_id": "300107",
    "name": "Kj\u00f8sen (fortopp)",
    "lat": 62.49024,
    "lon": 7.33742,
    "grade": "1",
    "t": 4,
    "county": "16",
    "length": "3,28",
    "length_text": "km tur\/retur",
    "hc": null,
    "type": "0",
    "url": "\/turar\/300107"
  },
  {
    "id": "304",
    "page_id": "203927",
    "name": "Kleiva",
    "lat": 62.9705,
    "lon": 8.72744,
    "grade": "0",
    "t": 2,
    "county": "26",
    "length": "2,2",
    "length_text": "km tur\/retur",
    "hc": null,
    "type": "0",
    "url": "\/turar\/203927"
  },
  {
    "id": "1803",
    "page_id": "203651",
    "name": "Klempert\u00e5sen",
    "lat": 62.85327463,
    "lon": 7.09859817,
    "grade": "0",
    "t": 4,
    "county": "4",
    "length": "3,6",
    "length_text": "km tur\/retur",
    "hc": null,
    "type": "0",
    "url": "\/turar\/203651"
  },
  {
    "id": "1982",
    "page_id": "300114",
    "name": "Kleppen",
    "lat": 62.7928,
    "lon": 8.055765,
    "grade": "1",
    "t": 4,
    "county": "14",
    "length": "6,08",
    "length_text": "km tur\/retur",
    "hc": null,
    "type": "0",
    "url": "\/turar\/300114"
  },
  {
    "id": "1950",
    "page_id": "300141",
    "name": "Klimpan",
    "lat": 63.028999,
    "lon": 7.640097,
    "grade": "1",
    "t": 4,
    "county": "2",
    "length": "4,50",
    "length_text": "km tur\/retur",
    "hc": null,
    "type": "0",
    "url": "\/turar\/300141"
  },
  {
    "id": "1752",
    "page_id": "203755",
    "name": "Klubba",
    "lat": 63.114535,
    "lon": 7.691514,
    "grade": "0",
    "t": 4,
    "county": "11",
    "length": "3,80",
    "length_text": "km rundtur",
    "hc": null,
    "type": "0",
    "url": "\/turar\/203755"
  },
  {
    "id": "578",
    "page_id": "300105",
    "name": "Kl\u00f8vstien nedre, rundtur",
    "lat": 62.47492519,
    "lon": 7.66496909,
    "grade": "1",
    "t": 2,
    "county": "16",
    "length": "4,79",
    "length_text": "km rundtur",
    "hc": null,
    "type": "0",
    "url": "\/turar\/300105"
  },
  {
    "id": "1051",
    "page_id": "203871",
    "name": "Kokarsteinen",
    "lat": 62.43117255,
    "lon": 6.92911363,
    "grade": "0",
    "t": 2,
    "county": "22",
    "length": "3,69",
    "length_text": "km tur\/retur",
    "hc": null,
    "type": "0",
    "url": "\/turar\/203871"
  },
  {
    "id": "1789",
    "page_id": "203647",
    "name": "Krekvikdalen",
    "lat": 62.919376,
    "lon": 7.586618,
    "grade": "0",
    "t": 4,
    "county": "3",
    "length": "2,6",
    "length_text": "km tur\/retur",
    "hc": null,
    "type": "0",
    "url": "\/turar\/203647"
  },
  {
    "id": "1437",
    "page_id": "203782",
    "name": "Kringstadsetra",
    "lat": 62.745432,
    "lon": 7.065561,
    "grade": "1",
    "t": 1,
    "county": "13",
    "length": "5",
    "length_text": "km tur\/retur",
    "hc": null,
    "type": "0",
    "url": "\/turar\/203782"
  },
  {
    "id": "1238",
    "page_id": "203928",
    "name": "Kristiansvarden p\u00e5 Skarfjellet",
    "lat": 62.92054247,
    "lon": 8.73098195,
    "grade": "2",
    "t": 4,
    "county": "26",
    "length": "4,52",
    "length_text": "km tur\/retur",
    "hc": null,
    "type": "0",
    "url": "\/turar\/203928"
  },
  {
    "id": "1998",
    "page_id": "300190",
    "name": "Kr\u00e5keli p\u00e5 Aksla",
    "lat": 62.47578215,
    "lon": 6.20654047,
    "grade": "0",
    "t": 4,
    "county": "33",
    "length": "2,55",
    "length_text": "km tur\/retur",
    "hc": null,
    "type": "0",
    "url": "\/turar\/300190"
  },
  {
    "id": "38",
    "page_id": "203961",
    "name": "Kr\u00e5kvika friluftsomr\u00e5de",
    "lat": 62.61906922,
    "lon": 7.07367182,
    "grade": "0",
    "t": 4,
    "county": "31",
    "length": "3,5",
    "length_text": "km tur\/retur",
    "hc": null,
    "type": "0",
    "url": "\/turar\/203961"
  },
  {
    "id": "1305",
    "page_id": "203767",
    "name": "Kumlokket, Midsundtrappa",
    "lat": 62.680457,
    "lon": 6.684086,
    "grade": "1",
    "t": 4,
    "county": "12",
    "length": "1",
    "length_text": "km tur\/retur",
    "hc": null,
    "type": "0",
    "url": "\/turar\/203767"
  },
  {
    "id": "1265",
    "page_id": "203886",
    "name": "Kurla",
    "lat": 62.087089,
    "lon": 6.884262,
    "grade": "0",
    "t": 0,
    "county": "23",
    "length": "4",
    "length_text": "km tur\/retur",
    "hc": null,
    "type": "0",
    "url": "\/turar\/203886"
  },
  {
    "id": "1759",
    "page_id": "300151",
    "name": "Kvalvik Fort",
    "lat": 63.09954,
    "lon": 7.896147,
    "grade": "0",
    "t": 4,
    "county": "11",
    "length": "0,8",
    "length_text": "km tur\/retur",
    "hc": null,
    "type": "0",
    "url": "\/turar\/300151"
  },
  {
    "id": "1643",
    "page_id": "203652",
    "name": "Kvannfjellet ",
    "lat": 62.85113428,
    "lon": 7.33332891,
    "grade": "2",
    "t": 4,
    "county": "4",
    "length": "6,96",
    "length_text": "km tur\/retur",
    "hc": null,
    "type": "0",
    "url": "\/turar\/203652"
  },
  {
    "id": "1742",
    "page_id": "203756",
    "name": "Kvernberget",
    "lat": 63.11786,
    "lon": 7.80959,
    "grade": "1",
    "t": 4,
    "county": "11",
    "length": "1,8",
    "length_text": "km tur\/retur",
    "hc": null,
    "type": "0",
    "url": "\/turar\/203756"
  },
  {
    "id": "256",
    "page_id": "203696",
    "name": "Kyststien Bud - rundtur ved foten av Gulberget.",
    "lat": 62.9110317,
    "lon": 6.94039822,
    "grade": "1",
    "t": 4,
    "county": "4",
    "length": "6,73",
    "length_text": "km rundtur",
    "hc": null,
    "type": "0",
    "url": "\/turar\/203696"
  },
  {
    "id": "1276",
    "page_id": "203887",
    "name": "Langevatnet",
    "lat": 62.298472,
    "lon": 6.786119,
    "grade": "1",
    "t": 0,
    "county": "23",
    "length": "4",
    "length_text": "km tur\/retur",
    "hc": null,
    "type": "0",
    "url": "\/turar\/203887"
  },
  {
    "id": "1415",
    "page_id": "203757",
    "name": "Larsbua, Frei",
    "lat": 63.035659,
    "lon": 7.76247,
    "grade": "0",
    "t": 4,
    "county": "11",
    "length": "4,",
    "length_text": "km tur\/retur",
    "hc": null,
    "type": "0",
    "url": "\/turar\/203757"
  },
  {
    "id": "172",
    "page_id": "300152",
    "name": "Lasken, Folkeparken",
    "lat": 63.130247,
    "lon": 7.743268,
    "grade": "0",
    "t": 3,
    "county": "11",
    "length": "2,3,",
    "length_text": "km tur\/retur",
    "hc": null,
    "type": "0",
    "url": "\/turar\/300152"
  },
  {
    "id": "1160",
    "page_id": "203840",
    "name": "Leira ved Sand\u00f8y",
    "lat": 62.818087,
    "lon": 6.597333,
    "grade": "0",
    "t": 4,
    "county": "19",
    "length": "3,2",
    "length_text": "km tur\/retur",
    "hc": null,
    "type": "0",
    "url": "\/turar\/203840"
  },
  {
    "id": "1756",
    "page_id": "204015",
    "name": "Lerstadvatnet",
    "lat": 62.468838,
    "lon": 6.299372,
    "grade": "0",
    "t": 4,
    "county": "33",
    "length": "1,9",
    "length_text": "km tur\/retur",
    "hc": null,
    "type": "0",
    "url": "\/turar\/204015"
  },
  {
    "id": "1499",
    "page_id": "300180",
    "name": "Levandehornet",
    "lat": 62.269647,
    "lon": 6.117059,
    "grade": "2",
    "t": 4,
    "county": "35",
    "length": "4,97",
    "length_text": "km tur\/retur",
    "hc": null,
    "type": "0",
    "url": "\/turar\/300180"
  },
  {
    "id": "1239",
    "page_id": "203929",
    "name": "Liabekken om setervegen",
    "lat": 63.007119,
    "lon": 9.117751,
    "grade": "1",
    "t": 4,
    "county": "26",
    "length": "6",
    "length_text": "km rundtur",
    "hc": null,
    "type": "0",
    "url": "\/turar\/203929"
  },
  {
    "id": "970",
    "page_id": "203727",
    "name": "Liab\u00f8runden",
    "lat": 63.122642,
    "lon": 8.306125,
    "grade": "0",
    "t": 2,
    "county": "7",
    "length": "3,4",
    "length_text": "km rundtur",
    "hc": null,
    "type": "0",
    "url": "\/turar\/203727"
  },
  {
    "id": "1767",
    "page_id": "203994",
    "name": "Liafjellet",
    "lat": 62.485536,
    "lon": 6.766634,
    "grade": "1",
    "t": 2,
    "county": "34",
    "length": "7,8",
    "length_text": "km tur\/retur",
    "hc": null,
    "type": "0",
    "url": "\/turar\/203994"
  },
  {
    "id": "1920",
    "page_id": "300146",
    "name": "Liasetra",
    "lat": 62.32412198,
    "lon": 7.07730675,
    "grade": "0",
    "t": 1,
    "county": "23",
    "length": "3,97",
    "length_text": "km tur\/retur",
    "hc": null,
    "type": "0",
    "url": "\/turar\/300146"
  },
  {
    "id": "1458",
    "page_id": "203783",
    "name": "Liavegen",
    "lat": 62.741144,
    "lon": 7.119307,
    "grade": "0",
    "t": 4,
    "county": "13",
    "length": "4",
    "length_text": "km tur\/retur",
    "hc": null,
    "type": "0",
    "url": "\/turar\/203783"
  },
  {
    "id": "46",
    "page_id": "203980",
    "name": "Lidaveten",
    "lat": 62.217916,
    "lon": 5.973172,
    "grade": "1",
    "t": 4,
    "county": "32",
    "length": "2,2",
    "length_text": "km tur\/retur",
    "hc": null,
    "type": "0",
    "url": "\/turar\/203980"
  },
  {
    "id": "1738",
    "page_id": "204017",
    "name": "Lillevatnet",
    "lat": 62.465217,
    "lon": 6.376222,
    "grade": "0",
    "t": 4,
    "county": "33",
    "length": "2,1",
    "length_text": "km tur\/retur",
    "hc": null,
    "type": "0",
    "url": "\/turar\/204017"
  },
  {
    "id": "1425",
    "page_id": "203955",
    "name": "Lisjenotten",
    "lat": 62.331963,
    "lon": 5.865236,
    "grade": "0",
    "t": 4,
    "county": "29",
    "length": "1,28",
    "length_text": "km tur\/retur",
    "hc": null,
    "type": "0",
    "url": "\/turar\/203955"
  },
  {
    "id": "1421",
    "page_id": "203713",
    "name": "Litlvatnet, \u00c5ndal",
    "lat": 62.83913,
    "lon": 7.439729,
    "grade": "0",
    "t": 1,
    "county": "6",
    "length": "3",
    "length_text": "km tur\/retur",
    "hc": null,
    "type": "0",
    "url": "\/turar\/203713"
  },
  {
    "id": "1488",
    "page_id": "203797",
    "name": "Lj\u00f8s\u00e5botn",
    "lat": 62.63161847,
    "lon": 8.18364467,
    "grade": "2",
    "t": 4,
    "county": "14",
    "length": "5,47",
    "length_text": "km tur\/retur",
    "hc": null,
    "type": "0",
    "url": "\/turar\/203797"
  },
  {
    "id": "1470",
    "page_id": "203915",
    "name": "Lundlia \u00c5motan",
    "lat": 62.495922,
    "lon": 9.0693,
    "grade": "1",
    "t": 4,
    "county": "25",
    "length": "7,5",
    "length_text": "km tur\/retur",
    "hc": null,
    "type": "0",
    "url": "\/turar\/203915"
  },
  {
    "id": "1788",
    "page_id": "203684",
    "name": "Lyngstadfjellet",
    "lat": 62.954698,
    "lon": 7.312891,
    "grade": "1",
    "t": 4,
    "county": "3",
    "length": "5,8",
    "length_text": "km tur\/retur",
    "hc": null,
    "type": "0",
    "url": "\/turar\/203684"
  },
  {
    "id": "1947",
    "page_id": "300160",
    "name": "Lysl\u00f8ypa p\u00e5 Tomrereset",
    "lat": 62.56139123,
    "lon": 6.91101193,
    "grade": "0",
    "t": 4,
    "county": "31",
    "length": "4,48",
    "length_text": "km rundtur",
    "hc": null,
    "type": "0",
    "url": "\/turar\/300160"
  },
  {
    "id": "1416",
    "page_id": "203758",
    "name": "L\u00e5gfjellet, Frei",
    "lat": 63.045371,
    "lon": 7.740705,
    "grade": "1",
    "t": 4,
    "county": "11",
    "length": "9,0",
    "length_text": "km tur\/retur",
    "hc": null,
    "type": "0",
    "url": "\/turar\/203758"
  },
  {
    "id": "1645",
    "page_id": "203697",
    "name": "L\u00e5gheia",
    "lat": 62.87131398,
    "lon": 7.21262741,
    "grade": "1",
    "t": 4,
    "county": "4",
    "length": "8,95",
    "length_text": "km tur\/retur",
    "hc": null,
    "type": "0",
    "url": "\/turar\/203697"
  },
  {
    "id": "1436",
    "page_id": "203784",
    "name": "L\u00f8nsetfjellet  \/  Sk\u00e5rsfjellet",
    "lat": 62.792699,
    "lon": 7.399499,
    "grade": "1",
    "t": 4,
    "county": "13",
    "length": "8,8",
    "length_text": "km tur\/retur",
    "hc": null,
    "type": "0",
    "url": "\/turar\/203784"
  },
  {
    "id": "1053",
    "page_id": "203872",
    "name": "L\u00f8setnakken",
    "lat": 62.35964,
    "lon": 7.095575,
    "grade": "0",
    "t": 1,
    "county": "22",
    "length": "4",
    "length_text": "km tur\/retur",
    "hc": null,
    "type": "0",
    "url": "\/turar\/203872"
  },
  {
    "id": "20",
    "page_id": "203941",
    "name": "Magnhildberget",
    "lat": 63.1022,
    "lon": 8.08053,
    "grade": "2",
    "t": 4,
    "county": "28",
    "length": "5,2",
    "length_text": "km tur\/retur",
    "hc": null,
    "type": "0",
    "url": "\/turar\/203941"
  },
  {
    "id": "167",
    "page_id": "300115",
    "name": "Mardalsfossen",
    "lat": 62.47828153,
    "lon": 8.12308383,
    "grade": "0",
    "t": 4,
    "county": "14",
    "length": "3,74",
    "length_text": "km tur\/retur",
    "hc": null,
    "type": "0",
    "url": "\/turar\/300115"
  },
  {
    "id": "1246",
    "page_id": "203861",
    "name": "Maurdalen",
    "lat": 63.359747,
    "lon": 8.034369,
    "grade": "0",
    "t": 3,
    "county": "21",
    "length": "3,2",
    "length_text": "km tur\/retur",
    "hc": null,
    "type": "0",
    "url": "\/turar\/203861"
  },
  {
    "id": "865",
    "page_id": "203900",
    "name": "Mausavatnet rundt",
    "lat": 62.410589,
    "lon": 6.271656,
    "grade": "0",
    "t": 4,
    "county": "24",
    "length": "3,4",
    "length_text": "km tur\/retur",
    "hc": null,
    "type": "0",
    "url": "\/turar\/203900"
  },
  {
    "id": "1817",
    "page_id": "300135",
    "name": "Meekknoken fra Mork",
    "lat": 62.977274,
    "lon": 7.579451,
    "grade": "2",
    "t": 4,
    "county": "2",
    "length": "7",
    "length_text": "km tur\/retur",
    "hc": null,
    "type": "0",
    "url": "\/turar\/300135"
  },
  {
    "id": "997",
    "page_id": "300119",
    "name": "Meg\u00e5rdsvatnet Friluftsomr\u00e5de",
    "lat": 63.066601,
    "lon": 8.322213,
    "grade": "0",
    "t": 4,
    "county": "7",
    "length": "4,4",
    "length_text": "km tur\/retur",
    "hc": null,
    "type": "0",
    "url": "\/turar\/300119"
  },
  {
    "id": "1822",
    "page_id": "203685",
    "name": "Melen - fra G\u00e5dalsvatnet",
    "lat": 62.9491,
    "lon": 7.23924,
    "grade": "2",
    "t": 4,
    "county": "3",
    "length": "8,6",
    "length_text": "km tur\/retur",
    "hc": null,
    "type": "0",
    "url": "\/turar\/203685"
  },
  {
    "id": "1498",
    "page_id": "300181",
    "name": "Melssetra opp Melsfjellvegen",
    "lat": 62.167185,
    "lon": 6.184231,
    "grade": "0",
    "t": 4,
    "county": "35",
    "length": "4,8",
    "length_text": "km tur\/retur",
    "hc": null,
    "type": "0",
    "url": "\/turar\/300181"
  },
  {
    "id": "1928",
    "page_id": "300131",
    "name": "Middagshesten",
    "lat": 62.21731811,
    "lon": 7.21867569,
    "grade": "2",
    "t": 4,
    "county": "15",
    "length": "7,2",
    "length_text": "km tur\/retur",
    "hc": null,
    "type": "0",
    "url": "\/turar\/300131"
  },
  {
    "id": "1820",
    "page_id": "203714",
    "name": "Midtvatnet fr\u00e5 Bakke",
    "lat": 62.913329,
    "lon": 7.818262,
    "grade": "1",
    "t": 1,
    "county": "6",
    "length": "5,8",
    "length_text": "km tur\/retur",
    "hc": null,
    "type": "0",
    "url": "\/turar\/203714"
  },
  {
    "id": "1963",
    "page_id": "300109",
    "name": "Midtveishuken i Moldemarka",
    "lat": 62.76092969,
    "lon": 7.20459366,
    "grade": "0",
    "t": 3,
    "county": "13",
    "length": "1,31",
    "length_text": "km rundtur",
    "hc": null,
    "type": "0",
    "url": "\/turar\/300109"
  },
  {
    "id": "497",
    "page_id": "300104",
    "name": "Moanebba",
    "lat": 62.5613,
    "lon": 7.87602,
    "grade": "2",
    "t": 4,
    "county": "16",
    "length": "1,65",
    "length_text": "km en vei",
    "hc": null,
    "type": "0",
    "url": "\/turar\/300104"
  },
  {
    "id": "198",
    "page_id": "203785",
    "name": "Moldevatnet fra Jensgurilia",
    "lat": 62.7743,
    "lon": 7.19359,
    "grade": "1",
    "t": 3,
    "county": "13",
    "length": "6,45",
    "length_text": "km tur\/retur",
    "hc": null,
    "type": "0",
    "url": "\/turar\/203785"
  },
  {
    "id": "1262",
    "page_id": "203873",
    "name": "Moloen",
    "lat": 62.378998,
    "lon": 6.981616,
    "grade": "0",
    "t": 2,
    "county": "22",
    "length": "1,7",
    "length_text": "km tur\/retur",
    "hc": null,
    "type": "0",
    "url": "\/turar\/203873"
  },
  {
    "id": "165",
    "page_id": "203874",
    "name": "Mos\u00e6tra",
    "lat": 62.37881,
    "lon": 7.091833,
    "grade": "1",
    "t": 4,
    "county": "22",
    "length": "3,2",
    "length_text": "km tur\/retur",
    "hc": null,
    "type": "0",
    "url": "\/turar\/203874"
  },
  {
    "id": "856",
    "page_id": "204018",
    "name": "Myklebusthorne og Sperrenakken fra Nes",
    "lat": 62.502908,
    "lon": 6.281261,
    "grade": "1",
    "t": 4,
    "county": "33",
    "length": "6,7",
    "length_text": "km tur\/retur",
    "hc": null,
    "type": "0",
    "url": "\/turar\/204018"
  },
  {
    "id": "704",
    "page_id": "300053",
    "name": "M\u00e5svassbu",
    "lat": 62.64808943,
    "lon": 7.83428678,
    "grade": "0",
    "t": 3,
    "county": "16",
    "length": "4,78",
    "length_text": "km tur\/retur",
    "hc": null,
    "type": "0",
    "url": "\/turar\/300053"
  },
  {
    "id": "1256",
    "page_id": "203889",
    "name": "M\u00f8llsvatnet",
    "lat": 62.14293,
    "lon": 7.219803,
    "grade": "1",
    "t": 1,
    "county": "23",
    "length": "5",
    "length_text": "km rundtur",
    "hc": null,
    "type": "0",
    "url": "\/turar\/203889"
  },
  {
    "id": "1261",
    "page_id": "203890",
    "name": "Nausane",
    "lat": 62.079256,
    "lon": 6.868365,
    "grade": "1",
    "t": 0,
    "county": "23",
    "length": "2",
    "length_text": "km tur\/retur",
    "hc": null,
    "type": "0",
    "url": "\/turar\/203890"
  },
  {
    "id": "1426",
    "page_id": "203813",
    "name": "Nedre Vassdalsvatnet",
    "lat": 62.23366438,
    "lon": 7.31702328,
    "grade": "1",
    "t": 4,
    "county": "15",
    "length": "5,87",
    "length_text": "km tur\/retur",
    "hc": null,
    "type": "0",
    "url": "\/turar\/203813"
  },
  {
    "id": "180",
    "page_id": "300136",
    "name": "Nekstadsetra, B\u00e5dalen",
    "lat": 62.9922,
    "lon": 7.55109,
    "grade": "0",
    "t": 2,
    "county": "2",
    "length": "6",
    "length_text": "km tur\/retur",
    "hc": null,
    "type": "0",
    "url": "\/turar\/300136"
  },
  {
    "id": "1418",
    "page_id": "203715",
    "name": "Nesahamran",
    "lat": 62.884343,
    "lon": 8.091648,
    "grade": "1",
    "t": 2,
    "county": "6",
    "length": "5,64",
    "length_text": "km tur\/retur",
    "hc": null,
    "type": "0",
    "url": "\/turar\/203715"
  },
  {
    "id": "1397",
    "page_id": "203956",
    "name": "Nibben",
    "lat": 62.361701,
    "lon": 5.846355,
    "grade": "0",
    "t": 4,
    "county": "29",
    "length": "3,6",
    "length_text": "km tur\/retur",
    "hc": null,
    "type": "0",
    "url": "\/turar\/203956"
  },
  {
    "id": "1025",
    "page_id": "203847",
    "name": "Nihusen",
    "lat": 62.517289,
    "lon": 6.667242,
    "grade": "1",
    "t": 4,
    "county": "20",
    "length": "6",
    "length_text": "km rundtur",
    "hc": null,
    "type": "0",
    "url": "\/turar\/203847"
  },
  {
    "id": "1474",
    "page_id": "300156",
    "name": "Nissevegen",
    "lat": 62.257248,
    "lon": 5.864897,
    "grade": "0",
    "t": 4,
    "county": "29",
    "length": "4,5",
    "length_text": "km rundtur",
    "hc": null,
    "type": "0",
    "url": "\/turar\/300156"
  },
  {
    "id": "1869",
    "page_id": "300174",
    "name": "Nyseternakken",
    "lat": 62.522171,
    "lon": 6.930703,
    "grade": "1",
    "t": 4,
    "county": "34",
    "length": "2,6",
    "length_text": "km tur\/retur",
    "hc": null,
    "type": "0",
    "url": "\/turar\/300174"
  },
  {
    "id": "2007",
    "page_id": "203827",
    "name": "N\u00e6rturer i Rauma",
    "lat": 62.56349244,
    "lon": 7.66821312,
    "grade": "0",
    "t": 1,
    "county": "16",
    "length": "0,49",
    "length_text": "km rundtur",
    "hc": null,
    "type": "0",
    "url": "\/turar\/203827"
  },
  {
    "id": "1100",
    "page_id": "203901",
    "name": "N\u00f8ringset",
    "lat": 62.409866,
    "lon": 6.096865,
    "grade": "0",
    "t": 4,
    "county": "24",
    "length": "2,8",
    "length_text": "km tur\/retur",
    "hc": null,
    "type": "0",
    "url": "\/turar\/203901"
  },
  {
    "id": "1991",
    "page_id": "300108",
    "name": "N\u00f8ta",
    "lat": 62.59194175,
    "lon": 7.358242,
    "grade": "0",
    "t": 3,
    "county": "16",
    "length": "3,40",
    "length_text": "km tur\/retur",
    "hc": null,
    "type": "0",
    "url": "\/turar\/300108"
  },
  {
    "id": "1993",
    "page_id": "300185",
    "name": "Olavshola",
    "lat": 62.19244101,
    "lon": 6.46963835,
    "grade": "1",
    "t": 2,
    "county": "35",
    "length": "2,97",
    "length_text": "km tur\/retur",
    "hc": null,
    "type": "0",
    "url": "\/turar\/300185"
  },
  {
    "id": "200",
    "page_id": "203786",
    "name": "Oltervatnet, Istad",
    "lat": 62.850759,
    "lon": 7.765446,
    "grade": "0",
    "t": 3,
    "county": "13",
    "length": "16",
    "length_text": "km tur\/retur",
    "hc": null,
    "type": "0",
    "url": "\/turar\/203786"
  },
  {
    "id": "1234",
    "page_id": "203814",
    "name": "Omnoss\u00e6tra",
    "lat": 62.348308,
    "lon": 7.353028,
    "grade": "0",
    "t": 2,
    "county": "15",
    "length": "3,8",
    "length_text": "km tur\/retur",
    "hc": null,
    "type": "0",
    "url": "\/turar\/203814"
  },
  {
    "id": "1306",
    "page_id": "203716",
    "name": "Orsetsetra",
    "lat": 62.944218,
    "lon": 7.884396,
    "grade": "1",
    "t": 1,
    "county": "6",
    "length": "5,2",
    "length_text": "km tur\/retur",
    "hc": null,
    "type": "0",
    "url": "\/turar\/203716"
  },
  {
    "id": "1434",
    "page_id": "203957",
    "name": "Osberget, nord",
    "lat": 62.351215,
    "lon": 5.835916,
    "grade": "0",
    "t": 3,
    "county": "29",
    "length": "1,9",
    "length_text": "km rundtur",
    "hc": null,
    "type": "0",
    "url": "\/turar\/203957"
  },
  {
    "id": "1260",
    "page_id": "203891",
    "name": "Over\u00e5setra",
    "lat": 62.301965,
    "lon": 7.121015,
    "grade": "1",
    "t": 1,
    "county": "23",
    "length": "2,4",
    "length_text": "km tur\/retur",
    "hc": null,
    "type": "0",
    "url": "\/turar\/203891"
  },
  {
    "id": "1496",
    "page_id": "203828",
    "name": "Pilgrimsleden",
    "lat": 62.260293,
    "lon": 8.095749,
    "grade": "1",
    "t": 3,
    "county": "16",
    "length": "5,34",
    "length_text": "km tur\/retur",
    "hc": null,
    "type": "0",
    "url": "\/turar\/203828"
  },
  {
    "id": "1824",
    "page_id": "300116",
    "name": "Prestneset",
    "lat": 62.75691996,
    "lon": 8.02086401,
    "grade": "0",
    "t": 4,
    "county": "14",
    "length": "1,8",
    "length_text": "km tur\/retur",
    "hc": null,
    "type": "0",
    "url": "\/turar\/300116"
  },
  {
    "id": "1813",
    "page_id": "300005",
    "name": "Purkeneset",
    "lat": 62.849365,
    "lon": 6.841971,
    "grade": "0",
    "t": 4,
    "county": "0",
    "length": "3,4",
    "length_text": "km tur\/retur",
    "hc": null,
    "type": "0",
    "url": "\/turar\/300005"
  },
  {
    "id": "1001",
    "page_id": "203841",
    "name": "Rambj\u00f8ra p\u00e5 Orten",
    "lat": 62.780651,
    "lon": 6.633114,
    "grade": "0",
    "t": 4,
    "county": "19",
    "length": "4",
    "length_text": "km tur\/retur",
    "hc": null,
    "type": "0",
    "url": "\/turar\/203841"
  },
  {
    "id": "1907",
    "page_id": "300182",
    "name": "Rambj\u00f8rhornet i \u00d8rsta",
    "lat": 62.22063074,
    "lon": 6.20583451,
    "grade": "1",
    "t": 4,
    "county": "35",
    "length": "4,14",
    "length_text": "km tur\/retur",
    "hc": null,
    "type": "0",
    "url": "\/turar\/300182"
  },
  {
    "id": "723",
    "page_id": "203829",
    "name": "Rampestreken",
    "lat": 62.560976,
    "lon": 7.712896,
    "grade": "1",
    "t": 4,
    "county": "16",
    "length": "1,56",
    "length_text": "km en vei",
    "hc": null,
    "type": "0",
    "url": "\/turar\/203829"
  },
  {
    "id": "1740",
    "page_id": "203902",
    "name": "Ramsvika",
    "lat": 62.404412,
    "lon": 6.288059,
    "grade": "0",
    "t": 4,
    "county": "24",
    "length": "4",
    "length_text": "km tur\/retur",
    "hc": null,
    "type": "0",
    "url": "\/turar\/203902"
  },
  {
    "id": "1831",
    "page_id": "203653",
    "name": "Raudtua",
    "lat": 62.9185,
    "lon": 7.14807,
    "grade": "1",
    "t": 4,
    "county": "4",
    "length": "5,7",
    "length_text": "km tur\/retur",
    "hc": null,
    "type": "0",
    "url": "\/turar\/203653"
  },
  {
    "id": "1078",
    "page_id": "203963",
    "name": "Rekdalshesten",
    "lat": 62.63493743,
    "lon": 6.72898865,
    "grade": "1",
    "t": 4,
    "county": "31",
    "length": "6,30",
    "length_text": "km tur\/retur",
    "hc": null,
    "type": "0",
    "url": "\/turar\/203963"
  },
  {
    "id": "1932",
    "page_id": "300161",
    "name": "Rekdals\u00f8ygarden-Nakken",
    "lat": 62.63961025,
    "lon": 6.71746158,
    "grade": "1",
    "t": 3,
    "county": "31",
    "length": "2,0",
    "length_text": "km tur\/retur",
    "hc": null,
    "type": "0",
    "url": "\/turar\/300161"
  },
  {
    "id": "1244",
    "page_id": "203740",
    "name": "Remmefjellet 267 moh",
    "lat": 62.553589,
    "lon": 6.491504,
    "grade": "1",
    "t": 4,
    "county": "8",
    "hc": null,
    "type": "0",
    "url": "\/turar\/203740"
  },
  {
    "id": "879",
    "page_id": "300123",
    "name": "Remmevegen tur- og rideveg ",
    "lat": 62.5923,
    "lon": 6.29149,
    "grade": "0",
    "t": 3,
    "county": "8",
    "length": "10",
    "length_text": "km tur\/retur",
    "hc": null,
    "type": "0",
    "url": "\/turar\/300123"
  },
  {
    "id": "1960",
    "page_id": "203658",
    "name": "Rennsetvatnet \/ \u00c5ramsvatnet",
    "lat": 62.81074426,
    "lon": 8.52916718,
    "grade": "1",
    "t": 1,
    "county": "25",
    "length": "7,10",
    "length_text": "km tur\/retur",
    "hc": null,
    "type": "0",
    "url": "\/turar\/203658"
  },
  {
    "id": "1806",
    "page_id": "203672",
    "name": "Ristuva fra B\u00e5dalen",
    "lat": 63.012954,
    "lon": 7.642358,
    "grade": "1",
    "t": 4,
    "county": "2",
    "length": "7,7",
    "length_text": "km tur\/retur",
    "hc": null,
    "type": "0",
    "url": "\/turar\/203672"
  },
  {
    "id": "1068",
    "page_id": "203706",
    "name": "Roald sm\u00e5b\u00e5thavn - Vigra Flyplass t \/ r",
    "lat": 62.561799,
    "lon": 6.106875,
    "grade": "0",
    "t": 3,
    "county": "5",
    "length": "5",
    "length_text": "km rundtur",
    "hc": null,
    "type": "0",
    "url": "\/turar\/203706"
  },
  {
    "id": "236",
    "page_id": "203958",
    "name": "Roppehornet",
    "lat": 62.38869,
    "lon": 5.842378,
    "grade": "1",
    "t": 4,
    "county": "29",
    "length": "5",
    "length_text": "km tur\/retur",
    "hc": null,
    "type": "0",
    "url": "\/turar\/203958"
  },
  {
    "id": "1404",
    "page_id": "300016",
    "name": "Rostolen",
    "lat": 63.302694,
    "lon": 8.636437,
    "grade": "1",
    "t": 2,
    "county": "1",
    "length": "8",
    "length_text": "km tur\/retur",
    "hc": null,
    "type": "0",
    "url": "\/turar\/300016"
  },
  {
    "id": "1320",
    "page_id": "204019",
    "name": "Rotanakken fra \u00d8strem",
    "lat": 62.44467,
    "lon": 6.46199,
    "grade": "1",
    "t": 4,
    "county": "33",
    "length": "5,24",
    "length_text": "km rundtur",
    "hc": null,
    "type": "0",
    "url": "\/turar\/204019"
  },
  {
    "id": "191",
    "page_id": "203981",
    "name": "Rotsethornet-H\u00f8gedalen",
    "lat": 62.130576,
    "lon": 6.099215,
    "grade": "2",
    "t": 4,
    "county": "32",
    "length": "9,3",
    "length_text": "km tur\/retur",
    "hc": null,
    "type": "0",
    "url": "\/turar\/203981"
  },
  {
    "id": "213",
    "page_id": "300183",
    "name": "Rundt Litledalsvatnet i Bj\u00f8rdalen",
    "lat": 62.1273255,
    "lon": 6.30132437,
    "grade": "0",
    "t": 4,
    "county": "35",
    "length": "3,5",
    "length_text": "km rundtur",
    "hc": null,
    "type": "0",
    "url": "\/turar\/300183"
  },
  {
    "id": "1315",
    "page_id": "203831",
    "name": "Rundt bruen",
    "lat": 62.557394,
    "lon": 7.691417,
    "grade": "0",
    "t": 2,
    "county": "16",
    "length": "3,03",
    "length_text": "km rundtur",
    "hc": null,
    "type": "0",
    "url": "\/turar\/203831"
  },
  {
    "id": "1570",
    "page_id": "300184",
    "name": "Rundtur Ytrehovde\u00e5sen fr\u00e5 Badeberget",
    "lat": 62.19178,
    "lon": 6.044297,
    "grade": "0",
    "t": 3,
    "county": "35",
    "length": "3,34",
    "length_text": "km rundtur",
    "hc": null,
    "type": "0",
    "url": "\/turar\/300184"
  },
  {
    "id": "1925",
    "page_id": "203664",
    "name": "Rundtur om Tj\u00f8nnmyran",
    "lat": 62.79244305,
    "lon": 8.7707001,
    "grade": "0",
    "t": 4,
    "county": "26",
    "length": "3,69",
    "length_text": "km rundtur",
    "hc": null,
    "type": "0",
    "url": "\/turar\/203664"
  },
  {
    "id": "1148",
    "page_id": "203768",
    "name": "R\u00e6stadvatnet",
    "lat": 62.719584,
    "lon": 6.839821,
    "grade": "0",
    "t": 4,
    "county": "12",
    "length": "3",
    "length_text": "km tur\/retur",
    "hc": null,
    "type": "0",
    "url": "\/turar\/203768"
  },
  {
    "id": "1419",
    "page_id": "203717",
    "name": "R\u00f8d",
    "lat": 62.914556,
    "lon": 7.690091,
    "grade": "0",
    "t": 2,
    "county": "6",
    "length": "2,1",
    "length_text": "km tur\/retur",
    "hc": null,
    "type": "0",
    "url": "\/turar\/203717"
  },
  {
    "id": "1985",
    "page_id": "300117",
    "name": "R\u00f8dhesten",
    "lat": 62.777713,
    "lon": 7.9930687,
    "grade": "1",
    "t": 4,
    "county": "14",
    "length": "7,45",
    "length_text": "km tur\/retur",
    "hc": null,
    "type": "0",
    "url": "\/turar\/300117"
  },
  {
    "id": "133",
    "page_id": "203849",
    "name": "R\u00f8dlandstua (355 moh) fra Reiakvam",
    "lat": 62.489,
    "lon": 6.46984,
    "grade": "1",
    "t": 4,
    "county": "20",
    "length": "2,9",
    "length_text": "km tur\/retur",
    "hc": null,
    "type": "0",
    "url": "\/turar\/203849"
  },
  {
    "id": "1705",
    "page_id": "203769",
    "name": "R\u00f8rsethornet",
    "lat": 62.7258,
    "lon": 6.78903,
    "grade": "2",
    "t": 3,
    "county": "12",
    "length": "2,3",
    "length_text": "km en vei",
    "hc": null,
    "type": "0",
    "url": "\/turar\/203769"
  },
  {
    "id": "1926",
    "page_id": "300157",
    "name": "R\u00f8yrafjellet",
    "lat": 62.301338,
    "lon": 5.802663,
    "grade": "0",
    "t": 4,
    "county": "29",
    "length": "2,25",
    "length_text": "km tur\/retur",
    "hc": null,
    "type": "0",
    "url": "\/turar\/300157"
  },
  {
    "id": "1941",
    "page_id": "203666",
    "name": "Saglimana",
    "lat": 62.8857719,
    "lon": 8.17471325,
    "grade": "1",
    "t": 4,
    "county": "28",
    "length": "3,99",
    "length_text": "km tur\/retur",
    "hc": null,
    "type": "0",
    "url": "\/turar\/203666"
  },
  {
    "id": "21",
    "page_id": "203730",
    "name": "Saksa \/ Bl\u00e5fjellet 902 moh.",
    "lat": 63.030273,
    "lon": 8.283603,
    "grade": "2",
    "t": 4,
    "county": "7",
    "length": "9,6",
    "length_text": "km tur\/retur",
    "hc": null,
    "type": "0",
    "url": "\/turar\/203730"
  },
  {
    "id": "1161",
    "page_id": "203842",
    "name": "Salsfyret p\u00e5 Hus\u00f8y (Ona)",
    "lat": 62.858474,
    "lon": 6.537037,
    "grade": "0",
    "t": 4,
    "county": "19",
    "length": "2",
    "length_text": "km tur\/retur",
    "hc": null,
    "type": "0",
    "url": "\/turar\/203842"
  },
  {
    "id": "1427",
    "page_id": "203964",
    "name": "Salthammersetra",
    "lat": 62.59599516,
    "lon": 7.06413925,
    "grade": "1",
    "t": 3,
    "county": "31",
    "length": "5,58",
    "length_text": "km tur\/retur",
    "hc": null,
    "type": "0",
    "url": "\/turar\/203964"
  },
  {
    "id": "974",
    "page_id": "203741",
    "name": "Samhjartet fr\u00e5 Brattv\u00e5g",
    "lat": 62.558131,
    "lon": 6.421454,
    "grade": "1",
    "t": 4,
    "county": "8",
    "length": "10",
    "length_text": "km tur\/retur",
    "hc": null,
    "type": "0",
    "url": "\/turar\/203741"
  },
  {
    "id": "111",
    "page_id": "203770",
    "name": "Sandan, Mid\u00f8ya",
    "lat": 62.6864,
    "lon": 6.59865,
    "grade": "0",
    "t": 4,
    "county": "12",
    "length": "2,3",
    "length_text": "km rundtur",
    "hc": null,
    "type": "0",
    "url": "\/turar\/203770"
  },
  {
    "id": "982",
    "page_id": "300121",
    "name": "Sand\u00e5dalen tursti",
    "lat": 63.124941,
    "lon": 8.653461,
    "grade": "1",
    "t": 4,
    "county": "7",
    "length": "12",
    "length_text": "km tur\/retur",
    "hc": null,
    "type": "0",
    "url": "\/turar\/300121"
  },
  {
    "id": "1178",
    "page_id": "203686",
    "name": "Seterfjellet, Ugelstad",
    "lat": 62.892069,
    "lon": 7.519445,
    "grade": "1",
    "t": 4,
    "county": "3",
    "length": "4,8",
    "length_text": "km tur\/retur",
    "hc": null,
    "type": "0",
    "url": "\/turar\/203686"
  },
  {
    "id": "791",
    "page_id": "203850",
    "name": "Setrevegar p\u00e5 Fylling \/ Skodje",
    "lat": 62.532636,
    "lon": 6.804083,
    "grade": "1",
    "t": 1,
    "county": "20",
    "length": "89",
    "length_text": "km tur\/retur",
    "hc": null,
    "type": "0",
    "url": "\/turar\/203850"
  },
  {
    "id": "1264",
    "page_id": "203742",
    "name": "Setsdemma ",
    "lat": 62.630878,
    "lon": 6.183888,
    "grade": "0",
    "t": 0,
    "county": "8",
    "length": "0,6",
    "length_text": "km rundtur",
    "hc": null,
    "type": "0",
    "url": "\/turar\/203742"
  },
  {
    "id": "1295",
    "page_id": "203718",
    "name": "Silsetvatnet rundt",
    "lat": 62.851122,
    "lon": 7.677383,
    "grade": "1",
    "t": 3,
    "county": "6",
    "length": "8",
    "length_text": "km rundtur",
    "hc": null,
    "type": "0",
    "url": "\/turar\/203718"
  },
  {
    "id": "1634",
    "page_id": "203698",
    "name": "Skaret natursti",
    "lat": 62.8022,
    "lon": 7.34466,
    "grade": "0",
    "t": 3,
    "county": "4",
    "length": "3,2",
    "length_text": "km tur\/retur",
    "hc": null,
    "type": "0",
    "url": "\/turar\/203698"
  },
  {
    "id": "1147",
    "page_id": "203771",
    "name": "Skarsvegen fr\u00e5 Rakv\u00e5g",
    "lat": 62.694998,
    "lon": 6.753953,
    "grade": "0",
    "t": 4,
    "county": "12",
    "length": "3",
    "length_text": "km tur\/retur",
    "hc": null,
    "type": "0",
    "url": "\/turar\/203771"
  },
  {
    "id": "1413",
    "page_id": "203788",
    "name": "Skihytta, Moldemarka",
    "lat": 62.760725,
    "lon": 7.15192,
    "grade": "0",
    "t": 3,
    "county": "13",
    "length": "1,3",
    "length_text": "km tur\/retur",
    "hc": null,
    "type": "0",
    "url": "\/turar\/203788"
  },
  {
    "id": "847",
    "page_id": "203851",
    "name": "Skodjebruene - rundtur",
    "lat": 62.5021,
    "lon": 6.61889,
    "grade": "0",
    "t": 3,
    "county": "20",
    "length": "1,6",
    "length_text": "km tur\/retur",
    "hc": null,
    "type": "0",
    "url": "\/turar\/203851"
  },
  {
    "id": "1870",
    "page_id": "203995",
    "name": "Skogsvegen p\u00e5 T\u00f8ssa",
    "lat": 62.479365,
    "lon": 6.72863,
    "grade": "0",
    "t": 4,
    "county": "34",
    "length": "3,2",
    "length_text": "km tur\/retur",
    "hc": null,
    "type": "0",
    "url": "\/turar\/203995"
  },
  {
    "id": "1753",
    "page_id": "203760",
    "name": "Skorpa ",
    "lat": 63.131629,
    "lon": 7.78624,
    "grade": "1",
    "t": 4,
    "county": "11",
    "length": "3",
    "length_text": "km tur\/retur",
    "hc": null,
    "type": "0",
    "url": "\/turar\/203760"
  },
  {
    "id": "1640",
    "page_id": "203699",
    "name": "Skottenvatnet",
    "lat": 62.9704,
    "lon": 7.22305,
    "grade": "0",
    "t": 4,
    "county": "4",
    "length": "4",
    "length_text": "km tur\/retur",
    "hc": null,
    "type": "0",
    "url": "\/turar\/203699"
  },
  {
    "id": "899",
    "page_id": "203743",
    "name": "Skulen",
    "lat": 62.675875,
    "lon": 6.31258,
    "grade": "1",
    "t": 4,
    "county": "8",
    "length": "8,48",
    "length_text": "km tur\/retur",
    "hc": null,
    "type": "0",
    "url": "\/turar\/203743"
  },
  {
    "id": "1955",
    "page_id": "203661",
    "name": "Skutneshaugen",
    "lat": 63.2979222,
    "lon": 8.16828132,
    "grade": "0",
    "t": 4,
    "county": "21",
    "length": "4,86",
    "length_text": "km tur\/retur",
    "hc": null,
    "type": "0",
    "url": "\/turar\/203661"
  },
  {
    "id": "402",
    "page_id": "300054",
    "name": "Sk\u00e5la og Litleoksen, rundtur",
    "lat": 62.621615,
    "lon": 7.417831,
    "grade": "1",
    "t": 4,
    "county": "16",
    "length": "4,67",
    "length_text": "km rundtur",
    "hc": null,
    "type": "0",
    "url": "\/turar\/300054"
  },
  {
    "id": "1183",
    "page_id": "204008",
    "name": "Sledalen- Bakkedalen",
    "lat": 62.096011,
    "lon": 6.450847,
    "grade": "0",
    "t": 4,
    "county": "35",
    "length": "7",
    "length_text": "km tur\/retur",
    "hc": null,
    "type": "0",
    "url": "\/turar\/204008"
  },
  {
    "id": "1494",
    "page_id": "203801",
    "name": "Slette og Brudesl\u00f8ret i Eikesdal",
    "lat": 62.40946,
    "lon": 8.364426,
    "grade": "0",
    "t": 4,
    "county": "14",
    "length": "6",
    "length_text": "km tur\/retur",
    "hc": null,
    "type": "0",
    "url": "\/turar\/203801"
  },
  {
    "id": "1066",
    "page_id": "203744",
    "name": "Slyngstad- Fannevatnet",
    "lat": 62.565692,
    "lon": 6.536758,
    "grade": "0",
    "t": 4,
    "county": "8",
    "length": "5,8",
    "length_text": "km tur\/retur",
    "hc": null,
    "type": "0",
    "url": "\/turar\/203744"
  },
  {
    "id": "202",
    "page_id": "203944",
    "name": "Smisetnebba 1175 moh",
    "lat": 62.803253,
    "lon": 8.433981,
    "grade": "3",
    "t": 4,
    "county": "28",
    "length": "15",
    "length_text": "km tur\/retur",
    "hc": null,
    "type": "0",
    "url": "\/turar\/203944"
  },
  {
    "id": "1226",
    "page_id": "203996",
    "name": "Snaufjellet",
    "lat": 62.490244,
    "lon": 6.931429,
    "grade": "2",
    "t": 3,
    "county": "34",
    "length": "11",
    "length_text": "km tur\/retur",
    "hc": null,
    "type": "0",
    "url": "\/turar\/203996"
  },
  {
    "id": "170",
    "page_id": "203802",
    "name": "Sn\u00f8fjellet",
    "lat": 62.749597,
    "lon": 7.70927,
    "grade": "2",
    "t": 4,
    "county": "14",
    "length": "0,00",
    "length_text": "km en vei",
    "hc": null,
    "type": "0",
    "url": "\/turar\/203802"
  },
  {
    "id": "719",
    "page_id": "203688",
    "name": "Sn\u00f8tinden",
    "lat": 62.8648,
    "lon": 7.51188,
    "grade": "2",
    "t": 4,
    "county": "3",
    "length": "7,2",
    "length_text": "km tur\/retur",
    "hc": null,
    "type": "0",
    "url": "\/turar\/203688"
  },
  {
    "id": "34",
    "page_id": "300150",
    "name": "Solav\u00e5gsfjellet fra Porsen",
    "lat": 62.42288101,
    "lon": 6.30809527,
    "grade": "0",
    "t": 4,
    "county": "24",
    "length": "3,8",
    "length_text": "km tur\/retur",
    "hc": null,
    "type": "0",
    "url": "\/turar\/300150"
  },
  {
    "id": "1432",
    "page_id": "203817",
    "name": "Solskaret",
    "lat": 62.182477,
    "lon": 7.068679,
    "grade": "2",
    "t": 4,
    "county": "15",
    "length": "10",
    "length_text": "km tur\/retur",
    "hc": null,
    "type": "0",
    "url": "\/turar\/203817"
  },
  {
    "id": "1429",
    "page_id": "203875",
    "name": "Stamneset",
    "lat": 62.40899905,
    "lon": 6.94857574,
    "grade": "0",
    "t": 3,
    "county": "22",
    "length": "3,43",
    "length_text": "km tur\/retur",
    "hc": null,
    "type": "0",
    "url": "\/turar\/203875"
  },
  {
    "id": "1776",
    "page_id": "203673",
    "name": "Stavneset",
    "lat": 63.1144,
    "lon": 7.66271,
    "grade": "0",
    "t": 4,
    "county": "2",
    "length": "4,3",
    "length_text": "km tur\/retur",
    "hc": null,
    "type": "0",
    "url": "\/turar\/203673"
  },
  {
    "id": "1255",
    "page_id": "203884",
    "name": "Stegholen \/ Flofjellet",
    "lat": 61.983594,
    "lon": 7.041571,
    "grade": "1",
    "t": 0,
    "county": "23",
    "length": "8",
    "length_text": "km tur\/retur",
    "hc": null,
    "type": "0",
    "url": "\/turar\/203884"
  },
  {
    "id": "1387",
    "page_id": "203997",
    "name": "Steingardsvatnet",
    "lat": 62.50474045,
    "lon": 6.99509382,
    "grade": "1",
    "t": 3,
    "county": "34",
    "length": "8,95",
    "length_text": "km tur\/retur",
    "hc": null,
    "type": "0",
    "url": "\/turar\/203997"
  },
  {
    "id": "1934",
    "page_id": "300144",
    "name": "Steinsets\u00e6tra",
    "lat": 62.52589,
    "lon": 6.7950654,
    "grade": "1",
    "t": 1,
    "county": "20",
    "length": "6,44",
    "length_text": "km tur\/retur",
    "hc": null,
    "type": "0",
    "url": "\/turar\/300144"
  },
  {
    "id": "889",
    "page_id": "203852",
    "name": "Stigen i Engesetdalen",
    "lat": 62.537543,
    "lon": 6.65749,
    "grade": "0",
    "t": 0,
    "county": "20",
    "length": "4",
    "length_text": "km tur\/retur",
    "hc": null,
    "type": "0",
    "url": "\/turar\/203852"
  },
  {
    "id": "1395",
    "page_id": "300017",
    "name": "Storfonna",
    "lat": 63.367889,
    "lon": 8.75481,
    "grade": "1",
    "t": 3,
    "county": "1",
    "length": "3,2",
    "length_text": "km tur\/retur",
    "hc": null,
    "type": "0",
    "url": "\/turar\/300017"
  },
  {
    "id": "1808",
    "page_id": "300142",
    "name": "Storheia fra Lillemork.",
    "lat": 62.9789,
    "lon": 7.40435,
    "grade": "0",
    "t": 4,
    "county": "2",
    "length": "2,8",
    "length_text": "km tur\/retur",
    "hc": null,
    "type": "0",
    "url": "\/turar\/300142"
  },
  {
    "id": "140",
    "page_id": "203704",
    "name": "Storhornet (497 moh.)",
    "lat": 62.4738,
    "lon": 5.98438,
    "grade": "1",
    "t": 4,
    "county": "5",
    "length": "11,23",
    "length_text": "km rundtur",
    "hc": null,
    "type": "0",
    "url": "\/turar\/203704"
  },
  {
    "id": "1249",
    "page_id": "203745",
    "name": "Stormyrhytta Harams\u00f8ya",
    "lat": 62.638494,
    "lon": 6.252052,
    "grade": "1",
    "t": 4,
    "county": "8",
    "length": "3",
    "length_text": "km rundtur",
    "hc": null,
    "type": "0",
    "url": "\/turar\/203745"
  },
  {
    "id": "844",
    "page_id": "203853",
    "name": "Storrota",
    "lat": 62.493499,
    "lon": 6.536948,
    "grade": "0",
    "t": 4,
    "county": "20",
    "length": "1,4",
    "length_text": "km tur\/retur",
    "hc": null,
    "type": "0",
    "url": "\/turar\/203853"
  },
  {
    "id": "1237",
    "page_id": "203932",
    "name": "Storsetra",
    "lat": 62.939979,
    "lon": 8.451061,
    "grade": "1",
    "t": 4,
    "county": "26",
    "length": "4,4",
    "length_text": "km tur\/retur",
    "hc": null,
    "type": "0",
    "url": "\/turar\/203932"
  },
  {
    "id": "1942",
    "page_id": "300132",
    "name": "Storsvingen i Tafjord",
    "lat": 62.22609365,
    "lon": 7.41147459,
    "grade": "0",
    "t": 4,
    "county": "15",
    "length": "2,39",
    "length_text": "km rundtur",
    "hc": null,
    "type": "0",
    "url": "\/turar\/300132"
  },
  {
    "id": "1781",
    "page_id": "203648",
    "name": "Stortua",
    "lat": 62.926095,
    "lon": 7.424526,
    "grade": "1",
    "t": 4,
    "county": "3",
    "length": "4,2",
    "length_text": "km tur\/retur",
    "hc": null,
    "type": "0",
    "url": "\/turar\/203648"
  },
  {
    "id": "1961",
    "page_id": "203917",
    "name": "Stortuva fra \u00c5ram",
    "lat": 62.83373889,
    "lon": 8.56180094,
    "grade": "2",
    "t": 4,
    "county": "25",
    "length": "13,98",
    "length_text": "km tur\/retur",
    "hc": null,
    "type": "0",
    "url": "\/turar\/203917"
  },
  {
    "id": "921",
    "page_id": "203876",
    "name": "Storvasshytta",
    "lat": 62.416042,
    "lon": 7.32158676,
    "grade": "1",
    "t": 1,
    "county": "22",
    "length": "10,32",
    "length_text": "km tur\/retur",
    "hc": null,
    "type": "0",
    "url": "\/turar\/203876"
  },
  {
    "id": "1606",
    "page_id": "203863",
    "name": "Storvatnet",
    "lat": 63.397566,
    "lon": 8.110591,
    "grade": "1",
    "t": 2,
    "county": "21",
    "length": "5,7",
    "length_text": "km tur\/retur",
    "hc": null,
    "type": "0",
    "url": "\/turar\/203863"
  },
  {
    "id": "1124",
    "page_id": "203719",
    "name": "Stor\u00e5sen i Stokkdalen",
    "lat": 62.957447,
    "lon": 7.679679,
    "grade": "0",
    "t": 3,
    "county": "6",
    "length": "4",
    "length_text": "km tur\/retur",
    "hc": null,
    "type": "0",
    "url": "\/turar\/203719"
  },
  {
    "id": "855",
    "page_id": "203854",
    "name": "St\u00f8r\u00e5kfjellet",
    "lat": 62.5291,
    "lon": 6.60228,
    "grade": "0",
    "t": 2,
    "county": "20",
    "length": "6,85",
    "length_text": "km tur\/retur",
    "hc": null,
    "type": "0",
    "url": "\/turar\/203854"
  },
  {
    "id": "1394",
    "page_id": "300018",
    "name": "St\u00f8ttepunkt",
    "lat": 63.381519,
    "lon": 8.519978,
    "grade": "0",
    "t": 4,
    "county": "1",
    "length": "5,0",
    "length_text": "km tur\/retur",
    "hc": null,
    "type": "0",
    "url": "\/turar\/300018"
  },
  {
    "id": "1723",
    "page_id": "204021",
    "name": "Sukkertoppen (314 moh)",
    "lat": 62.4594,
    "lon": 6.09983,
    "grade": "1",
    "t": 4,
    "county": "33",
    "length": "4",
    "length_text": "km tur\/retur",
    "hc": null,
    "type": "0",
    "url": "\/turar\/204021"
  },
  {
    "id": "107",
    "page_id": "300163",
    "name": "Sunniva si rute til Dinglavatnet",
    "lat": 62.16665628,
    "lon": 6.12183522,
    "grade": "1",
    "t": 4,
    "county": "32",
    "length": "7",
    "length_text": "km tur\/retur",
    "hc": null,
    "type": "0",
    "url": "\/turar\/300163"
  },
  {
    "id": "1082",
    "page_id": "203904",
    "name": "Svanshornet",
    "lat": 62.421525,
    "lon": 6.202877,
    "grade": "1",
    "t": 3,
    "county": "24",
    "length": "9",
    "length_text": "km tur\/retur",
    "hc": null,
    "type": "0",
    "url": "\/turar\/203904"
  },
  {
    "id": "1969",
    "page_id": "203649",
    "name": "Svanvikmyra",
    "lat": 62.89549129,
    "lon": 7.44969875,
    "grade": "0",
    "t": 4,
    "county": "3",
    "length": "3,40",
    "length_text": "km tur\/retur",
    "hc": null,
    "type": "0",
    "url": "\/turar\/203649"
  },
  {
    "id": "989",
    "page_id": "203731",
    "name": "Svartberget 342 moh.",
    "lat": 63.088803,
    "lon": 8.239341,
    "grade": "0",
    "t": 4,
    "county": "7",
    "length": "3,6",
    "length_text": "km tur\/retur",
    "hc": null,
    "type": "0",
    "url": "\/turar\/203731"
  },
  {
    "id": "898",
    "page_id": "203877",
    "name": "Svartevatnet",
    "lat": 62.4203,
    "lon": 7.02761,
    "grade": "1",
    "t": 1,
    "county": "22",
    "length": "4",
    "length_text": "km tur\/retur",
    "hc": null,
    "type": "0",
    "url": "\/turar\/203877"
  },
  {
    "id": "1150",
    "page_id": "300148",
    "name": "Svartevatnet - Roaldshornet",
    "lat": 62.311573,
    "lon": 6.838818,
    "grade": "2",
    "t": 4,
    "county": "23",
    "length": "10,94",
    "length_text": "km tur\/retur",
    "hc": null,
    "type": "0",
    "url": "\/turar\/300148"
  },
  {
    "id": "1583",
    "page_id": "300175",
    "name": "Svartl\u00f8kfjellet fr\u00e5 Liasetra",
    "lat": 62.52488698,
    "lon": 6.87276363,
    "grade": "1",
    "t": 3,
    "county": "34",
    "length": "5,03",
    "length_text": "km tur\/retur",
    "hc": null,
    "type": "0",
    "url": "\/turar\/300175"
  },